
$GPRMC,235945.800,V,,,,,0.00,0.00,050180,,,N*45
$GPRMC,235946.000,V,,,,,0.00,0.00,050180,,,N*4E
$GPRMC,235946.200,V,,,,,0.00,0.00,050180,,,N*4C
$GPRMC,235946.399,V,,,,,0.00,0.00,050180,,,N*4D
$GPRMC,235946.600,V,,,,,0.00,0.00,050180,,,N*48
$GPRMC,235946.799,V,,,,,0.00,0.00,050180,,,N*49
$GPRMC,235947.000,V,,,,,0.00,0.00,050180,,,N*4F
$GPRMC,235947.200,V,,,,,0.00,0.00,050180,,,N*4D
$GPRMC,235947.399,V,,,,,0.00,0.00,050180,,,N*4C
$GPRMC,235947.600,V,,,,,0.00,0.00,050180,,,N*49
$GPRMC,235947.799,V,,,,,0.00,0.00,050180,,,N*48
$GPRMC,235948.000,V,,,,,0.00,0.00,050180,,,N*40
$GPRMC,235948.200,V,,,,,0.00,0.00,050180,,,N*42
$GPRMC,235948.400,V,,,,,0.00,0.00,050180,,,N*44
$GPRMC,235948.599,V,,,,,0.00,0.00,050180,,,N*45
$GPRMC,235948.799,V,,,,,0.00,0.00,050180,,,N*47
$GPRMC,235949.000,V,,,,,0.00,0.00,050180,,,N*41
$GPRMC,235949.200,V,,,,,0.00,0.00,050180,,,N*43
$GPRMC,235949.400,V,,,,,0.00,0.00,050180,,,N*45
$GPRMC,235949.599,V,,,,,0.00,0.00,050180,,,N*44
$GPRMC,235949.799,V,,,,,0.00,0.00,050180,,,N*46
$GPRMC,235950.000,V,,,,,0.00,0.00,050180,,,N*49
$GPRMC,235950.200,V,,,,,0.00,0.00,050180,,,N*4B
$GPRMC,235950.400,V,,,,,0.00,0.00,050180,,,N*4D
$GPRMC,235950.599,V,,,,,0.00,0.00,050180,,,N*4C
$GPRMC,235950.799,V,,,,,0.00,0.00,050180,,,N*4E
$GPRMC,235951.000,V,,,,,0.00,0.00,050180,,,N*48
$GPRMC,235951.200,V,,,,,0.00,0.00,050180,,,N*4A
$GPRMC,235951.400,V,,,,,0.00,0.00,050180,,,N*4C
$GPRMC,235951.599,V,,,,,0.00,0.00,050180,,,N*4D
$GPRMC,235951.799,V,,,,,0.00,0.00,050180,,,N*4F
$GPRMC,235952.000,V,,,,,0.00,0.00,050180,,,N*4B
$GPRMC,235952.199,V,,,,,0.00,0.00,050180,,,N*4A
$GPRMC,235952.400,V,,,,,0.00,0.00,050180,,,N*4F
$GPRMC,235952.599,V,,,,,0.00,0.00,050180,,,N*4E
$GPRMC,235952.800,V,,,,,0.00,0.00,050180,,,N*43
$GPRMC,235953.000,V,,,,,0.00,0.00,050180,,,N*4A
$GPRMC,235953.199,V,,,,,0.00,0.00,050180,,,N*4B
$GPRMC,235953.400,V,,,,,0.00,0.00,050180,,,N*4E
$GPRMC,235953.599,V,,,,,0.00,0.00,050180,,,N*4F
$GPRMC,235953.800,V,,,,,0.00,0.00,050180,,,N*42
$GPRMC,235954.000,V,,,,,0.00,0.00,050180,,,N*4D
$GPRMC,235954.199,V,,,,,0.00,0.00,050180,,,N*4C
$GPRMC,235954.400,V,,,,,0.00,0.00,050180,,,N*49
$GPRMC,235954.599,V,,,,,0.00,0.00,050180,,,N*48
$GPRMC,235954.800,V,,,,,0.00,0.00,050180,,,N*45
$GPRMC,235955.000,V,,,,,0.00,0.00,050180,,,N*4C
$GPRMC,235955.199,V,,,,,0.00,0.00,050180,,,N*4D
$GPRMC,235955.400,V,,,,,0.00,0.00,050180,,,N*48
$GPRMC,235955.599,V,,,,,0.00,0.00,050180,,,N*49
$GPRMC,235955.800,V,,,,,0.00,0.00,050180,,,N*44
$GPRMC,235956.000,V,,,,,0.00,0.00,050180,,,N*4F
$GPRMC,235956.199,V,,,,,0.00,0.00,050180,,,N*4E
$GPRMC,235956.400,V,,,,,0.00,0.00,050180,,,N*4B
$GPRMC,235956.599,V,,,,,0.00,0.00,050180,,,N*4A
$GPRMC,235956.800,V,,,,,0.00,0.00,050180,,,N*47
$GPRMC,235957.000,V,,,,,0.00,0.00,050180,,,N*4E
$GPRMC,235957.199,V,,,,,0.00,0.00,050180,,,N*4F
$GPRMC,235957.400,V,,,,,0.00,0.00,050180,,,N*4A
$GPRMC,235957.599,V,,,,,0.00,0.00,050180,,,N*4B
$GPRMC,235957.800,V,,,,,0.00,0.00,050180,,,N*46
$GPRMC,235958.000,V,,,,,0.00,0.00,050180,,,N*41
$GPRMC,235958.199,V,,,,,0.00,0.00,050180,,,N*40
$GPRMC,235958.400,V,,,,,0.00,0.00,050180,,,N*45
$GPRMC,235958.599,V,,,,,0.00,0.00,050180,,,N*44
$GPRMC,235958.800,V,,,,,0.00,0.00,050180,,,N*49
$GPRMC,235959.000,V,,,,,0.00,0.00,050180,,,N*40
$GPRMC,235959.199,V,,,,,0.00,0.00,050180,,,N*41
$GPRMC,235959.400,V,,,,,0.00,0.00,050180,,,N*44
$GPRMC,235959.599,V,,,,,0.00,0.00,050180,,,N*45
$GPRMC,235959.800,V,,,,,0.00,0.00,050180,,,N*48
$GPRMC,000000.000,V,,,,,0.00,0.00,060180,,,N*42
$GPRMC,000000.199,V,,,,,0.00,0.00,060180,,,N*43
$GPRMC,000000.399,V,,,,,0.00,0.00,060180,,,N*41
$GPRMC,000000.600,V,,,,,0.00,0.00,060180,,,N*44
$GPRMC,000000.800,V,,,,,0.00,0.00,060180,,,N*4A
$GPRMC,000001.000,V,,,,,0.00,0.00,060180,,,N*43
$GPRMC,000001.199,V,,,,,0.00,0.00,060180,,,N*42
$GPRMC,000001.399,V,,,,,0.00,0.00,060180,,,N*40
$GPRMC,000001.600,V,,,,,0.00,0.00,060180,,,N*45
$GPRMC,000001.800,V,,,,,0.00,0.00,060180,,,N*4B
$GPRMC,000002.000,V,,,,,0.00,0.00,060180,,,N*40
$GPRMC,000002.199,V,,,,,0.00,0.00,060180,,,N*41
$GPRMC,000002.399,V,,,,,0.00,0.00,060180,,,N*43
$GPRMC,000002.600,V,,,,,0.00,0.00,060180,,,N*46
$GPRMC,000002.800,V,,,,,0.00,0.00,060180,,,N*48
$GPRMC,000003.000,V,,,,,0.00,0.00,060180,,,N*41
$GPRMC,000003.199,V,,,,,0.00,0.00,060180,,,N*40
$GPRMC,000003.399,V,,,,,0.00,0.00,060180,,,N*42
$GPRMC,000003.600,V,,,,,0.00,0.00,060180,,,N*47
$GPRMC,000003.800,V,,,,,0.00,0.00,060180,,,N*49
$GPRMC,000004.000,V,,,,,0.00,0.00,060180,,,N*46
$GPRMC,000004.199,V,,,,,0.00,0.00,060180,,,N*47
$GPRMC,000004.399,V,,,,,0.00,0.00,060180,,,N*45
$GPRMC,000004.600,V,,,,,0.00,0.00,060180,,,N*40
$GPRMC,000004.800,V,,,,,0.00,0.00,060180,,,N*4E
$GPRMC,000005.000,V,,,,,0.00,0.00,060180,,,N*47
$GPRMC,000005.199,V,,,,,0.00,0.00,060180,,,N*46
$GPRMC,000005.399,V,,,,,0.00,0.00,060180,,,N*44
$GPRMC,000005.600,V,,,,,0.00,0.00,060180,,,N*41
$GPRMC,000005.800,V,,,,,0.00,0.00,060180,,,N*4F
$GPRMC,000005.958,V,,,,,0.00,0.00,060180,,,N*43
$GPRMC,000006.158,V,,,,,0.00,0.00,060180,,,N*48
$GPRMC,000006.359,V,,,,,0.00,0.00,060180,,,N*4B
$GPRMC,000006.559,V,,,,,0.00,0.00,060180,,,N*4D
$GPRMC,000006.759,V,,,,,0.00,0.00,060180,,,N*4F
$GPRMC,000006.958,V,,,,,0.00,0.00,060180,,,N*40
$GPRMC,000007.158,V,,,,,0.00,0.00,060180,,,N*49
$GPRMC,032133.495,V,,,,,0.00,0.00,090180,,,N*45
$GPRMC,032133.695,V,,,,,0.00,0.00,090180,,,N*47
$GPRMC,032133.896,V,,,,,0.00,0.00,090180,,,N*4A
$GPRMC,032134.096,V,,,,,0.00,0.00,090180,,,N*45
$GPRMC,032134.295,V,,,,,0.00,0.00,090180,,,N*44
$GPRMC,032134.495,V,,,,,0.00,0.00,090180,,,N*42
$GPRMC,032134.695,V,,,,,0.00,0.00,090180,,,N*40
$GPRMC,032134.896,V,,,,,0.00,0.00,090180,,,N*4D
$GPRMC,032135.096,V,,,,,0.00,0.00,090180,,,N*44
$GPRMC,032135.295,V,,,,,0.00,0.00,090180,,,N*45
$GPRMC,032135.495,V,,,,,0.00,0.00,090180,,,N*43
$GPRMC,032135.695,V,,,,,0.00,0.00,090180,,,N*41
$GPRMC,032135.896,V,,,,,0.00,0.00,090180,,,N*4C
$GPRMC,032136.096,V,,,,,0.00,0.00,090180,,,N*47
$GPRMC,032136.295,V,,,,,0.00,0.00,090180,,,N*46
$GPRMC,032136.495,V,,,,,0.00,0.00,090180,,,N*40
$GPRMC,032136.695,V,,,,,0.00,0.00,090180,,,N*42
$GPRMC,032136.896,V,,,,,0.00,0.00,090180,,,N*4F
$GPRMC,032137.096,V,,,,,0.00,0.00,090180,,,N*46
$GPRMC,032137.295,V,,,,,0.00,0.00,090180,,,N*47
$GPRMC,032137.495,V,,,,,0.00,0.00,090180,,,N*41
$GPRMC,032137.695,V,,,,,0.00,0.00,090180,,,N*43
$GPRMC,032137.896,V,,,,,0.00,0.00,090180,,,N*4E
$GPRMC,032138.087,V,,,,,0.00,0.00,090180,,,N*49
$GPRMC,032138.288,V,,,,,0.00,0.00,090180,,,N*44
$GPRMC,032138.488,V,,,,,0.00,0.00,090180,,,N*42
$GPRMC,032138.688,V,,,,,0.00,0.00,090180,,,N*40
$GPRMC,032138.887,V,,,,,0.00,0.00,090180,,,N*41
$GPRMC,032139.087,V,,,,,0.00,0.00,090180,,,N*48
$GPRMC,032139.288,V,,,,,0.00,0.00,090180,,,N*45
$GPRMC,032139.488,V,,,,,0.00,0.00,090180,,,N*43
$GPRMC,032139.688,V,,,,,0.00,0.00,090180,,,N*41
$GPRMC,032139.887,V,,,,,0.00,0.00,090180,,,N*40
$GPRMC,032140.087,V,,,,,0.00,0.00,090180,,,N*46
$GPRMC,032140.288,V,,,,,0.00,0.00,090180,,,N*4B
$GPRMC,032140.488,V,,,,,0.00,0.00,090180,,,N*4D
$GPRMC,032140.688,V,,,,,0.00,0.00,090180,,,N*4F
$GPRMC,032140.887,V,,,,,0.00,0.00,090180,,,N*4E
$GPRMC,032141.087,V,,,,,0.00,0.00,090180,,,N*47
$GPRMC,032141.288,V,,,,,0.00,0.00,090180,,,N*4A
$GPRMC,032141.488,V,,,,,0.00,0.00,090180,,,N*4C
$GPRMC,032141.688,V,,,,,0.00,0.00,090180,,,N*4E
$GPRMC,032141.887,V,,,,,0.00,0.00,090180,,,N*4F
$GPRMC,032142.087,V,,,,,0.00,0.00,090180,,,N*44
$GPRMC,032142.288,V,,,,,0.00,0.00,090180,,,N*49
$GPRMC,032142.488,V,,,,,0.00,0.00,090180,,,N*4F
$GPRMC,032142.688,V,,,,,0.00,0.00,090180,,,N*4D
$GPRMC,032142.887,V,,,,,0.00,0.00,090180,,,N*4C
$GPRMC,032143.087,V,,,,,0.00,0.00,090180,,,N*45
$GPRMC,032143.288,V,,,,,0.00,0.00,090180,,,N*48
$GPRMC,032143.488,V,,,,,0.00,0.00,090180,,,N*4E
$GPRMC,032143.688,V,,,,,0.00,0.00,090180,,,N*4C
$GPRMC,032143.887,V,,,,,0.00,0.00,090180,,,N*4D
$GPRMC,032144.087,V,,,,,0.00,0.00,090180,,,N*42
$GPRMC,032144.288,V,,,,,0.00,0.00,090180,,,N*4F
$GPRMC,032144.488,V,,,,,0.00,0.00,090180,,,N*49
$GPRMC,032144.688,V,,,,,0.00,0.00,090180,,,N*4B
$GPRMC,032144.887,V,,,,,0.00,0.00,090180,,,N*4A
$GPRMC,032145.087,V,,,,,0.00,0.00,090180,,,N*43
$GPRMC,032145.288,V,,,,,0.00,0.00,090180,,,N*4E
$GPRMC,032145.488,V,,,,,0.00,0.00,090180,,,N*48
$GPRMC,032145.688,V,,,,,0.00,0.00,090180,,,N*4A
$GPRMC,032145.887,V,,,,,0.00,0.00,090180,,,N*4B
$GPRMC,032146.087,V,,,,,0.00,0.00,090180,,,N*40
$GPRMC,032146.288,V,,,,,0.00,0.00,090180,,,N*4D
$GPRMC,032146.488,V,,,,,0.00,0.00,090180,,,N*4B
$GPRMC,032146.688,V,,,,,0.00,0.00,090180,,,N*49
$GPRMC,032146.887,V,,,,,0.00,0.00,090180,,,N*48
$GPRMC,032147.087,V,,,,,0.00,0.00,090180,,,N*41
$GPRMC,032147.288,V,,,,,0.00,0.00,090180,,,N*4C
$GPRMC,032147.488,V,,,,,0.00,0.00,090180,,,N*4A
$GPRMC,032147.688,V,,,,,0.00,0.00,090180,,,N*48
$GPRMC,032147.887,V,,,,,0.00,0.00,090180,,,N*49
$GPRMC,032148.087,V,,,,,0.00,0.00,090180,,,N*4E
$GPRMC,032148.288,V,,,,,0.00,0.00,090180,,,N*43
$GPRMC,032148.488,V,,,,,0.00,0.00,090180,,,N*45
$GPRMC,032148.688,V,,,,,0.00,0.00,090180,,,N*47
$GPRMC,032148.887,V,,,,,0.00,0.00,090180,,,N*46
$GPRMC,032149.087,V,,,,,0.00,0.00,090180,,,N*4F
$GPRMC,032149.288,V,,,,,0.00,0.00,090180,,,N*42
$GPRMC,032149.488,V,,,,,0.00,0.00,090180,,,N*44
$GPRMC,032149.688,V,,,,,0.00,0.00,090180,,,N*46
$GPRMC,032149.887,V,,,,,0.00,0.00,090180,,,N*47
$GPRMC,032150.087,V,,,,,0.00,0.00,090180,,,N*47
$GPRMC,032150.288,V,,,,,0.00,0.00,090180,,,N*4A
$GPRMC,032150.488,V,,,,,0.00,0.00,090180,,,N*4C
$GPRMC,032150.688,V,,,,,0.00,0.00,090180,,,N*4E
$GPRMC,032150.887,V,,,,,0.00,0.00,090180,,,N*4F
$GPRMC,032151.087,V,,,,,0.00,0.00,090180,,,N*46
$GPRMC,032151.288,V,,,,,0.00,0.00,090180,,,N*4B
$GPRMC,032151.488,V,,,,,0.00,0.00,090180,,,N*4D
$GPRMC,032151.688,V,,,,,0.00,0.00,090180,,,N*4F
$GPRMC,032151.887,V,,,,,0.00,0.00,090180,,,N*4E
$GPRMC,032152.087,V,,,,,0.00,0.00,090180,,,N*45
$GPRMC,032152.288,V,,,,,0.00,0.00,090180,,,N*48
$GPRMC,032152.488,V,,,,,0.00,0.00,090180,,,N*4E
$GPRMC,032152.688,V,,,,,0.00,0.00,090180,,,N*4C
$GPRMC,032152.887,V,,,,,0.00,0.00,090180,,,N*4D
$GPRMC,032153.087,V,,,,,0.00,0.00,090180,,,N*44
$GPRMC,032153.288,V,,,,,0.00,0.00,090180,,,N*49
$GPRMC,032153.488,V,,,,,0.00,0.00,090180,,,N*4F
$GPRMC,032153.688,V,,,,,0.00,0.00,090180,,,N*4D
$GPRMC,032153.887,V,,,,,0.00,0.00,090180,,,N*4C
$GPRMC,032154.087,V,,,,,0.00,0.00,090180,,,N*43
$GPRMC,032154.288,V,,,,,0.00,0.00,090180,,,N*4E
$GPRMC,032154.488,V,,,,,0.00,0.00,090180,,,N*48
$GPRMC,032154.688,V,,,,,0.00,0.00,090180,,,N*4A
$GPRMC,032154.887,V,,,,,0.00,0.00,090180,,,N*4B
$GPRMC,032155.087,V,,,,,0.00,0.00,090180,,,N*42
$GPRMC,032155.288,V,,,,,0.00,0.00,090180,,,N*4F
$GPRMC,032155.488,V,,,,,0.00,0.00,090180,,,N*49
$GPRMC,032155.688,V,,,,,0.00,0.00,090180,,,N*4B
$GPRMC,032155.887,V,,,,,0.00,0.00,090180,,,N*4A
$GPRMC,032156.087,V,,,,,0.00,0.00,090180,,,N*41
$GPRMC,032156.135,V,,,,,0.00,0.00,090180,,,N*49
$GPRMC,032156.335,V,,,,,0.00,0.00,090180,,,N*4B
$GPRMC,032156.534,V,,,,,0.00,0.00,090180,,,N*4C
$GPRMC,032156.734,V,,,,,0.00,0.00,090180,,,N*4E
$GPRMC,032156.934,V,,,,,0.00,0.00,090180,,,N*40
$GPRMC,032157.135,V,,,,,0.00,0.00,090180,,,N*48
$GPRMC,032157.335,V,,,,,0.00,0.00,090180,,,N*4A
$GPRMC,032157.534,V,,,,,0.00,0.00,090180,,,N*4D
$GPRMC,032157.734,V,,,,,0.00,0.00,090180,,,N*4F
$GPRMC,032157.934,V,,,,,0.00,0.00,090180,,,N*41
$GPRMC,032158.135,V,,,,,0.00,0.00,090180,,,N*47
$GPRMC,032158.335,V,,,,,0.00,0.00,090180,,,N*45
$GPRMC,032158.534,V,,,,,0.00,0.00,090180,,,N*42
$GPRMC,032158.734,V,,,,,0.00,0.00,090180,,,N*40
$GPRMC,032158.934,V,,,,,0.00,0.00,090180,,,N*4E
$GPRMC,032159.135,V,,,,,0.00,0.00,090180,,,N*46
$GPRMC,032159.335,V,,,,,0.00,0.00,090180,,,N*44
$GPRMC,032159.534,V,,,,,0.00,0.00,090180,,,N*43
$GPRMC,032159.734,V,,,,,0.00,0.00,090180,,,N*41
$GPRMC,032159.934,V,,,,,0.00,0.00,090180,,,N*4F
$GPRMC,032200.135,V,,,,,0.00,0.00,090180,,,N*49
$GPRMC,032200.335,V,,,,,0.00,0.00,090180,,,N*4B
$GPRMC,032200.534,V,,,,,0.00,0.00,090180,,,N*4C
$GPRMC,032200.734,V,,,,,0.00,0.00,090180,,,N*4E
$GPRMC,032200.934,V,,,,,0.00,0.00,090180,,,N*40
$GPRMC,032201.135,V,,,,,0.00,0.00,090180,,,N*48
$GPRMC,032201.335,V,,,,,0.00,0.00,090180,,,N*4A
$GPRMC,032201.534,V,,,,,0.00,0.00,090180,,,N*4D
$GPRMC,032201.734,V,,,,,0.00,0.00,090180,,,N*4F
$GPRMC,032201.934,V,,,,,0.00,0.00,090180,,,N*41
$GPRMC,032202.090,V,,,,,0.00,0.00,090180,,,N*45
$GPRMC,032202.130,V,,,,,0.00,0.00,090180,,,N*4E
$GPRMC,032202.330,V,,,,,0.00,0.00,090180,,,N*4C
$GPRMC,032202.530,V,,,,,0.00,0.00,090180,,,N*4A
$GPRMC,032202.729,V,,,,,0.00,0.00,090180,,,N*40
$GPRMC,032202.929,V,,,,,0.00,0.00,090180,,,N*4E
$GPRMC,032203.130,V,,,,,0.00,0.00,090180,,,N*4F
$GPRMC,032203.330,V,,,,,0.00,0.00,090180,,,N*4D
$GPRMC,032203.530,V,,,,,0.00,0.00,090180,,,N*4B
$GPRMC,032203.729,V,,,,,0.00,0.00,090180,,,N*41
$GPRMC,032203.929,V,,,,,0.00,0.00,090180,,,N*4F
$GPRMC,032204.130,V,,,,,0.00,0.00,090180,,,N*48
$GPRMC,032204.330,V,,,,,0.00,0.00,090180,,,N*4A
$GPRMC,032204.530,V,,,,,0.00,0.00,090180,,,N*4C
$GPRMC,032204.729,V,,,,,0.00,0.00,090180,,,N*46
$GPRMC,032204.929,V,,,,,0.00,0.00,090180,,,N*48
$GPRMC,032205.130,V,,,,,0.00,0.00,090180,,,N*49
$GPRMC,032205.330,V,,,,,0.00,0.00,090180,,,N*4B
$GPRMC,032205.530,V,,,,,0.00,0.00,090180,,,N*4D
$GPRMC,032205.729,V,,,,,0.00,0.00,090180,,,N*47
$GPRMC,032205.929,V,,,,,0.00,0.00,090180,,,N*49
$GPRMC,032206.130,V,,,,,0.00,0.00,090180,,,N*4A
$GPRMC,032206.330,V,,,,,0.00,0.00,090180,,,N*48
$GPRMC,032206.530,V,,,,,0.00,0.00,090180,,,N*4E
$GPRMC,032206.729,V,,,,,0.00,0.00,090180,,,N*44
$GPRMC,032206.929,V,,,,,0.00,0.00,090180,,,N*4A
$GPRMC,032207.130,V,,,,,0.00,0.00,090180,,,N*4B
$GPRMC,032207.330,V,,,,,0.00,0.00,090180,,,N*49
$GPRMC,032207.530,V,,,,,0.00,0.00,090180,,,N*4F
$GPRMC,032207.729,V,,,,,0.00,0.00,090180,,,N*45
$GPRMC,032207.929,V,,,,,0.00,0.00,090180,,,N*4B
$GPRMC,032208.090,V,,,,,0.00,0.00,090180,,,N*4F
$GPRMC,032208.130,V,,,,,0.00,0.00,090180,,,N*44
$GPRMC,032208.330,V,,,,,0.00,0.00,090180,,,N*46
$GPRMC,032208.530,V,,,,,0.00,0.00,090180,,,N*40
$GPRMC,032208.729,V,,,,,0.00,0.00,090180,,,N*4A
$GPRMC,032208.929,V,,,,,0.00,0.00,090180,,,N*44
$GPRMC,032209.130,V,,,,,0.00,0.00,090180,,,N*45
$GPRMC,032209.330,V,,,,,0.00,0.00,090180,,,N*47
$GPRMC,032209.530,V,,,,,0.00,0.00,090180,,,N*41
$GPRMC,032209.729,V,,,,,0.00,0.00,090180,,,N*4B
$GPRMC,032209.929,V,,,,,0.00,0.00,090180,,,N*45
$GPRMC,032210.130,V,,,,,0.00,0.00,090180,,,N*4D
$GPRMC,032210.330,V,,,,,0.00,0.00,090180,,,N*4F
$GPRMC,032210.530,V,,,,,0.00,0.00,090180,,,N*49
$GPRMC,032210.729,V,,,,,0.00,0.00,090180,,,N*43
$GPRMC,032210.929,V,,,,,0.00,0.00,090180,,,N*4D
$GPRMC,032211.130,V,,,,,0.00,0.00,090180,,,N*4C
$GPRMC,032211.330,V,,,,,0.00,0.00,090180,,,N*4E
$GPRMC,032211.530,V,,,,,0.00,0.00,090180,,,N*48
$GPRMC,032211.729,V,,,,,0.00,0.00,090180,,,N*42
$GPRMC,032211.929,V,,,,,0.00,0.00,090180,,,N*4C
$GPRMC,032212.130,V,,,,,0.00,0.00,090180,,,N*4F
$GPRMC,032212.330,V,,,,,0.00,0.00,090180,,,N*4D
$GPRMC,032212.530,V,,,,,0.00,0.00,090180,,,N*4B
$GPRMC,032212.729,V,,,,,0.00,0.00,090180,,,N*41
$GPRMC,032212.929,V,,,,,0.00,0.00,090180,,,N*4F
$GPRMC,032213.130,V,,,,,0.00,0.00,090180,,,N*4E
$GPRMC,032213.330,V,,,,,0.00,0.00,090180,,,N*4C
$GPRMC,032213.530,V,,,,,0.00,0.00,090180,,,N*4A
$GPRMC,032213.729,V,,,,,0.00,0.00,090180,,,N*40
$GPRMC,032213.929,V,,,,,0.00,0.00,090180,,,N*4E
$GPRMC,032214.097,V,,,,,0.00,0.00,090180,,,N*45
$GPRMC,032214.297,V,,,,,0.00,0.00,090180,,,N*47
$GPRMC,032214.496,V,,,,,0.00,0.00,090180,,,N*40
$GPRMC,032214.696,V,,,,,0.00,0.00,090180,,,N*42
$GPRMC,032214.896,V,,,,,0.00,0.00,090180,,,N*4C
$GPRMC,032215.097,V,,,,,0.00,0.00,090180,,,N*44
$GPRMC,032215.297,V,,,,,0.00,0.00,090180,,,N*46
$GPRMC,032215.496,V,,,,,0.00,0.00,090180,,,N*41
$GPRMC,032215.696,V,,,,,0.00,0.00,090180,,,N*43
$GPRMC,032215.896,V,,,,,0.00,0.00,090180,,,N*4D
$GPRMC,032216.097,V,,,,,0.00,0.00,090180,,,N*47
$GPRMC,032216.297,V,,,,,0.00,0.00,090180,,,N*45
$GPRMC,032216.496,V,,,,,0.00,0.00,090180,,,N*42
$GPRMC,032216.696,V,,,,,0.00,0.00,090180,,,N*40
$GPRMC,032216.896,V,,,,,0.00,0.00,090180,,,N*4E
$GPRMC,032217.097,V,,,,,0.00,0.00,090180,,,N*46
$GPRMC,032217.297,V,,,,,0.00,0.00,090180,,,N*44
$GPRMC,032217.496,V,,,,,0.00,0.00,090180,,,N*43
$GPRMC,032217.696,V,,,,,0.00,0.00,090180,,,N*41
$GPRMC,032217.896,V,,,,,0.00,0.00,090180,,,N*4F
$GPRMC,032218.097,V,,,,,0.00,0.00,090180,,,N*49
$GPRMC,032218.297,V,,,,,0.00,0.00,090180,,,N*4B
$GPRMC,032218.496,V,,,,,0.00,0.00,090180,,,N*4C
$GPRMC,032218.696,V,,,,,0.00,0.00,090180,,,N*4E
$GPRMC,032218.896,V,,,,,0.00,0.00,090180,,,N*40
$GPRMC,032219.097,V,,,,,0.00,0.00,090180,,,N*48
$GPRMC,032219.297,V,,,,,0.00,0.00,090180,,,N*4A
$GPRMC,032219.496,V,,,,,0.00,0.00,090180,,,N*4D
$GPRMC,032219.696,V,,,,,0.00,0.00,090180,,,N*4F
$GPRMC,032219.896,V,,,,,0.00,0.00,090180,,,N*41
$GPRMC,032220.097,V,,,,,0.00,0.00,290415,,,N*49
$GPRMC,032220.297,V,,,,,0.00,0.00,290415,,,N*4B
$GPRMC,032220.496,V,,,,,0.00,0.00,290415,,,N*4C
$GPRMC,032220.696,V,,,,,0.00,0.00,290415,,,N*4E
$GPRMC,032220.896,V,,,,,0.00,0.00,290415,,,N*40
$GPRMC,032221.097,V,,,,,0.00,0.00,290415,,,N*48
$GPRMC,032221.297,V,,,,,0.00,0.00,290415,,,N*4A
$GPRMC,032221.496,V,,,,,0.00,0.00,290415,,,N*4D
$GPRMC,032221.696,V,,,,,0.00,0.00,290415,,,N*4F
$GPRMC,032221.896,V,,,,,0.00,0.00,290415,,,N*41
$GPRMC,032222.097,V,,,,,0.00,0.00,290415,,,N*4B
$GPRMC,032222.297,V,,,,,0.00,0.00,290415,,,N*49
$GPRMC,032222.496,V,,,,,0.00,0.00,290415,,,N*4E
$GPRMC,032222.696,V,,,,,0.00,0.00,290415,,,N*4C
$GPRMC,032222.896,V,,,,,0.00,0.00,290415,,,N*42
$GPRMC,032223.097,V,,,,,0.00,0.00,290415,,,N*4A
$GPRMC,032223.297,V,,,,,0.00,0.00,290415,,,N*48
$GPRMC,032223.496,V,,,,,0.00,0.00,290415,,,N*4F
$GPRMC,032223.696,V,,,,,0.00,0.00,290415,,,N*4D
$GPRMC,032223.896,V,,,,,0.00,0.00,290415,,,N*43
$GPRMC,032224.097,V,,,,,0.00,0.00,290415,,,N*4D
$GPRMC,032224.297,V,,,,,0.00,0.00,290415,,,N*4F
$GPRMC,032224.496,V,,,,,0.00,0.00,290415,,,N*48
$GPRMC,032224.696,V,,,,,0.00,0.00,290415,,,N*4A
$GPRMC,032224.896,V,,,,,0.00,0.00,290415,,,N*44
$GPRMC,032225.097,V,,,,,0.00,0.00,290415,,,N*4C
$GPRMC,032225.297,V,,,,,0.00,0.00,290415,,,N*4E
$GPRMC,032225.496,V,,,,,0.00,0.00,290415,,,N*49
$GPRMC,032225.696,V,,,,,0.00,0.00,290415,,,N*4B
$GPRMC,032225.896,V,,,,,0.00,0.00,290415,,,N*45
$GPRMC,032226.097,V,,,,,0.00,0.00,290415,,,N*4F
$GPRMC,032226.297,V,,,,,0.00,0.00,290415,,,N*4D
$GPRMC,032226.496,V,,,,,0.00,0.00,290415,,,N*4A
$GPRMC,032226.696,V,,,,,0.00,0.00,290415,,,N*48
$GPRMC,032226.896,V,,,,,0.00,0.00,290415,,,N*46
$GPRMC,032227.097,V,,,,,0.00,0.00,290415,,,N*4E
$GPRMC,032227.297,V,,,,,0.00,0.00,290415,,,N*4C
$GPRMC,032227.496,V,,,,,0.00,0.00,290415,,,N*4B
$GPRMC,032227.696,V,,,,,0.00,0.00,290415,,,N*49
$GPRMC,032227.896,V,,,,,0.00,0.00,290415,,,N*47
$GPRMC,032228.097,V,,,,,0.00,0.00,290415,,,N*41
$GPRMC,032228.297,V,,,,,0.00,0.00,290415,,,N*43
$GPRMC,032228.496,V,,,,,0.00,0.00,290415,,,N*44
$GPRMC,032228.696,V,,,,,0.00,0.00,290415,,,N*46
$GPRMC,032228.896,V,,,,,0.00,0.00,290415,,,N*48
$GPRMC,032229.097,V,,,,,0.00,0.00,290415,,,N*40
$GPRMC,032229.297,V,,,,,0.00,0.00,290415,,,N*42
$GPRMC,032229.496,V,,,,,0.00,0.00,290415,,,N*45
$GPRMC,032229.696,V,,,,,0.00,0.00,290415,,,N*47
$GPRMC,032229.896,V,,,,,0.00,0.00,290415,,,N*49
$GPRMC,032230.097,V,,,,,0.00,0.00,290415,,,N*48
$GPRMC,032230.297,V,,,,,0.00,0.00,290415,,,N*4A
$GPRMC,032230.496,V,,,,,0.00,0.00,290415,,,N*4D
$GPRMC,032230.696,V,,,,,0.00,0.00,290415,,,N*4F
$GPRMC,032230.896,V,,,,,0.00,0.00,290415,,,N*41
$GPRMC,032231.097,V,,,,,0.00,0.00,290415,,,N*49
$GPRMC,032231.297,V,,,,,0.00,0.00,290415,,,N*4B
$GPRMC,032231.496,V,,,,,0.00,0.00,290415,,,N*4C
$GPRMC,032231.696,V,,,,,0.00,0.00,290415,,,N*4E
$GPRMC,032231.896,V,,,,,0.00,0.00,290415,,,N*40
$GPRMC,032232.096,V,,,,,0.00,0.00,290415,,,N*4B
$GPRMC,032232.295,V,,,,,0.00,0.00,290415,,,N*4A
$GPRMC,032232.495,V,,,,,0.00,0.00,290415,,,N*4C
$GPRMC,032232.695,V,,,,,0.00,0.00,290415,,,N*4E
$GPRMC,032232.896,V,,,,,0.00,0.00,290415,,,N*43
$GPRMC,032233.096,V,,,,,0.00,0.00,290415,,,N*4A
$GPRMC,032233.295,V,,,,,0.00,0.00,290415,,,N*4B
$GPRMC,032233.495,V,,,,,0.00,0.00,290415,,,N*4D
$GPRMC,032233.695,V,,,,,0.00,0.00,290415,,,N*4F
$GPRMC,032233.896,V,,,,,0.00,0.00,290415,,,N*42
$GPRMC,032234.096,V,,,,,0.00,0.00,290415,,,N*4D
$GPRMC,032234.295,V,,,,,0.00,0.00,290415,,,N*4C
$GPRMC,032234.495,V,,,,,0.00,0.00,290415,,,N*4A
$GPRMC,032234.695,V,,,,,0.00,0.00,290415,,,N*48
$GPRMC,032234.896,V,,,,,0.00,0.00,290415,,,N*45
$GPRMC,032235.096,V,,,,,0.00,0.00,290415,,,N*4C
$GPRMC,032235.295,V,,,,,0.00,0.00,290415,,,N*4D
$GPRMC,032235.495,V,,,,,0.00,0.00,290415,,,N*4B
$GPRMC,032235.695,V,,,,,0.00,0.00,290415,,,N*49
$GPRMC,032235.896,V,,,,,0.00,0.00,290415,,,N*44
$GPRMC,032236.096,V,,,,,0.00,0.00,290415,,,N*4F
$GPRMC,032236.295,V,,,,,0.00,0.00,290415,,,N*4E
$GPRMC,032236.495,V,,,,,0.00,0.00,290415,,,N*48
$GPRMC,032236.695,V,,,,,0.00,0.00,290415,,,N*4A
$GPRMC,032236.896,V,,,,,0.00,0.00,290415,,,N*47
$GPRMC,032237.096,V,,,,,0.00,0.00,290415,,,N*4E
$GPRMC,032237.295,V,,,,,0.00,0.00,290415,,,N*4F
$GPRMC,032237.495,V,,,,,0.00,0.00,290415,,,N*49
$GPRMC,032237.695,V,,,,,0.00,0.00,290415,,,N*4B
$GPRMC,032237.896,V,,,,,0.00,0.00,290415,,,N*46
$GPRMC,032238.096,V,,,,,0.00,0.00,290415,,,N*41
$GPRMC,032238.135,V,,,,,0.00,0.00,290415,,,N*49
$GPRMC,032238.336,V,,,,,0.00,0.00,290415,,,N*48
$GPRMC,032238.536,V,,,,,0.00,0.00,290415,,,N*4E
$GPRMC,032238.735,V,,,,,0.00,0.00,290415,,,N*4F
$GPRMC,032238.935,V,,,,,0.00,0.00,290415,,,N*41
$GPRMC,032239.135,V,,,,,0.00,0.00,290415,,,N*48
$GPRMC,032239.336,V,,,,,0.00,0.00,290415,,,N*49
$GPRMC,032239.536,V,,,,,0.00,0.00,290415,,,N*4F
$GPRMC,032239.735,V,,,,,0.00,0.00,290415,,,N*4E
$GPRMC,032239.935,V,,,,,0.00,0.00,290415,,,N*40
$GPRMC,032240.135,V,,,,,0.00,0.00,290415,,,N*46
$GPRMC,032240.336,V,,,,,0.00,0.00,290415,,,N*47
$GPRMC,032240.536,V,,,,,0.00,0.00,290415,,,N*41
$GPRMC,032240.735,V,,,,,0.00,0.00,290415,,,N*40
$GPRMC,032240.935,V,,,,,0.00,0.00,290415,,,N*4E
$GPRMC,032241.135,V,,,,,0.00,0.00,290415,,,N*47
$GPRMC,032241.336,V,,,,,0.00,0.00,290415,,,N*46
$GPRMC,032241.536,V,,,,,0.00,0.00,290415,,,N*40
$GPRMC,032241.735,V,,,,,0.00,0.00,290415,,,N*41
$GPRMC,032241.935,V,,,,,0.00,0.00,290415,,,N*4F
$GPRMC,032242.135,V,,,,,0.00,0.00,290415,,,N*44
$GPRMC,032242.336,V,,,,,0.00,0.00,290415,,,N*45
$GPRMC,032242.536,V,,,,,0.00,0.00,290415,,,N*43
$GPRMC,032242.735,V,,,,,0.00,0.00,290415,,,N*42
$GPRMC,032242.935,V,,,,,0.00,0.00,290415,,,N*4C
$GPRMC,032243.135,V,,,,,0.00,0.00,290415,,,N*45
$GPRMC,032243.336,V,,,,,0.00,0.00,290415,,,N*44
$GPRMC,032243.536,V,,,,,0.00,0.00,290415,,,N*42
$GPRMC,032243.735,V,,,,,0.00,0.00,290415,,,N*43
$GPRMC,032243.935,V,,,,,0.00,0.00,290415,,,N*4D
$GPRMC,032244.099,V,,,,,0.00,0.00,290415,,,N*45
$GPRMC,032244.299,V,,,,,0.00,0.00,290415,,,N*47
$GPRMC,032244.500,V,,,,,0.00,0.00,290415,,,N*40
$GPRMC,032244.700,V,,,,,0.00,0.00,290415,,,N*42
$GPRMC,032244.900,V,,,,,0.00,0.00,290415,,,N*4C
$GPRMC,032245.099,V,,,,,0.00,0.00,290415,,,N*44
$GPRMC,032245.299,V,,,,,0.00,0.00,290415,,,N*46
$GPRMC,032245.500,V,,,,,0.00,0.00,290415,,,N*41
$GPRMC,032245.700,V,,,,,0.00,0.00,290415,,,N*43
$GPRMC,032245.900,V,,,,,0.00,0.00,290415,,,N*4D
$GPRMC,032246.099,V,,,,,0.00,0.00,290415,,,N*47
$GPRMC,032246.299,V,,,,,0.00,0.00,290415,,,N*45
$GPRMC,032246.500,V,,,,,0.00,0.00,290415,,,N*42
$GPRMC,032246.700,V,,,,,0.00,0.00,290415,,,N*40
$GPRMC,032246.900,V,,,,,0.00,0.00,290415,,,N*4E
$GPRMC,032247.099,V,,,,,0.00,0.00,290415,,,N*46
$GPRMC,032247.299,V,,,,,0.00,0.00,290415,,,N*44
$GPRMC,032247.500,V,,,,,0.00,0.00,290415,,,N*43
$GPRMC,032247.700,V,,,,,0.00,0.00,290415,,,N*41
$GPRMC,032247.900,V,,,,,0.00,0.00,290415,,,N*4F
$GPRMC,032248.099,V,,,,,0.00,0.00,290415,,,N*49
$GPRMC,032248.299,V,,,,,0.00,0.00,290415,,,N*4B
$GPRMC,032248.500,V,,,,,0.00,0.00,290415,,,N*4C
$GPRMC,032248.700,V,,,,,0.00,0.00,290415,,,N*4E
$GPRMC,032248.900,V,,,,,0.00,0.00,290415,,,N*40
$GPRMC,032249.099,V,,,,,0.00,0.00,290415,,,N*48
$GPRMC,032249.299,V,,,,,0.00,0.00,290415,,,N*4A
$GPRMC,032249.500,V,,,,,0.00,0.00,290415,,,N*4D
$GPRMC,032249.700,V,,,,,0.00,0.00,290415,,,N*4F
$GPRMC,032249.900,V,,,,,0.00,0.00,290415,,,N*41
$GPRMC,032250.075,V,,,,,0.00,0.00,290415,,,N*42
$GPRMC,032250.139,V,,,,,0.00,0.00,290415,,,N*4B
$GPRMC,032250.341,V,,,,,0.00,0.00,290415,,,N*46
$GPRMC,032250.541,V,,,,,0.00,0.00,290415,,,N*40
$GPRMC,032250.741,V,,,,,13.01,278.75,290415,,,N*7E
$GPRMC,032250.941,V,,,,,0.15,275.88,290415,,,N*48
$GPRMC,032251.141,V,,,,,0.42,98.46,290415,,,N*70
$GPRMC,032251.341,V,,,,,0.01,280.89,290415,,,N*4D
$GPRMC,032251.541,V,,,,,0.55,279.18,290415,,,N*44
$GPRMC,032251.741,V,,,,,0.74,278.29,290415,,,N*46
$GPRMC,032251.941,V,,,,,0.64,274.76,290415,,,N*4F
$GPRMC,032252.141,V,,,,,0.18,279.80,290415,,,N*4B
$GPRMC,032252.341,V,,,,,0.11,99.41,290415,,,N*71
$GPRMC,032252.541,V,,,,,0.62,98.61,290415,,,N*70
$GPRMC,032252.741,V,,,,,0.48,94.31,290415,,,N*73
$GPRMC,032252.941,V,,,,,0.11,63.15,290415,,,N*7F
$GPRMC,032253.141,V,,,,,0.07,319.55,290415,,,N*4B
$GPRMC,032253.341,V,,,,,0.03,52.33,290415,,,N*71
$GPRMC,032253.541,V,,,,,0.09,86.72,290415,,,N*71
$GPRMC,032253.741,V,,,,,0.07,248.44,290415,,,N*48
$GPRMC,032253.941,V,,,,,0.22,266.93,290415,,,N*47
$GPRMC,032254.141,V,,,,,0.69,273.37,290415,,,N*4D
$GPRMC,032254.341,V,,,,,0.35,278.73,290415,,,N*4D
$GPRMC,032254.541,V,,,,,0.16,288.39,290415,,,N*4B
$GPRMC,032254.741,V,,,,,0.14,77.17,290415,,,N*75
$GPRMC,032254.941,V,,,,,0.38,90.36,290415,,,N*7F
$GPRMC,032255.141,V,,,,,0.17,83.36,290415,,,N*79
$GPRMC,032255.341,V,,,,,0.03,310.86,290415,,,N*4C
$GPRMC,032255.541,V,,,,,0.04,48.05,290415,,,N*78
$GPRMC,032255.741,V,,,,,0.04,354.97,290415,,,N*4F
$GPRMC,032255.941,V,,,,,0.19,278.87,290415,,,N*43
$GPRMC,032256.081,V,,,,,0.10,281.16,290415,,,N*42
$GPRMC,032256.141,V,,,,,0.11,93.18,290415,,,N*71
$GPRMC,032256.341,V,,,,,0.09,101.45,290415,,,N*48
$GPRMC,032256.541,V,,,,,0.05,124.79,290415,,,N*4A
$GPRMC,032256.741,V,,,,,0.24,91.48,290415,,,N*76
$GPRMC,032256.941,V,,,,,0.03,88.50,290415,,,N*7C
$GPRMC,032257.141,V,,,,,0.32,273.51,290415,,,N*40
$GPRMC,032257.341,V,,,,,0.15,282.78,290415,,,N*42
$GPRMC,032257.541,V,,,,,0.02,25.35,290415,,,N*74
$GPRMC,032257.741,V,,,,,0.02,93.03,290415,,,N*7E
$GPRMC,032257.941,V,,,,,0.36,95.28,290415,,,N*78
$GPRMC,032258.141,V,,,,,0.50,91.66,290415,,,N*71
$GPRMC,032258.341,V,,,,,0.03,80.50,290415,,,N*70
$GPRMC,032258.541,V,,,,,0.11,262.46,290415,,,N*4C
$GPRMC,032258.741,V,,,,,0.03,180.37,290415,,,N*44
$GPRMC,032258.941,V,,,,,0.04,219.80,290415,,,N*42
$GPRMC,032259.141,V,,,,,0.30,102.90,290415,,,N*44
$GPRMC,032259.341,V,,,,,0.54,99.35,290415,,,N*78
$GPRMC,032259.541,V,,,,,0.34,99.63,290415,,,N*7B
$GPRMC,032259.741,V,,,,,0.43,93.08,290415,,,N*7E
$GPRMC,032259.941,V,,,,,0.14,104.74,290415,,,N*46
$GPRMC,032300.141,V,,,,,0.19,111.63,290415,,,N*4C
$GPRMC,032300.341,V,,,,,0.19,107.90,290415,,,N*45
$GPRMC,032300.541,V,,,,,0.23,254.85,290415,,,N*4B
$GPRMC,032300.741,V,,,,,0.04,171.70,290415,,,N*42
$GPRMC,032300.941,V,,,,,0.13,285.00,290415,,,N*45
$GPRMC,032301.141,V,,,,,0.35,284.79,290415,,,N*47
$GPRMC,032301.341,V,,,,,0.12,283.88,290415,,,N*49
$GPRMC,032301.541,V,,,,,0.16,94.77,290415,,,N*7F
$GPRMC,032301.741,V,,,,,0.35,94.04,290415,,,N*78
$GPRMC,032301.941,V,,,,,0.30,92.13,290415,,,N*73
$GPRMC,032302.098,V,,,,,0.05,50.03,290415,,,N*74
$GPRMC,032302.298,V,,,,,0.08,46.52,290415,,,N*78
$GPRMC,032302.498,V,,,,,0.14,136.56,290415,,,N*41
$GPRMC,032302.698,V,,,,,0.16,153.12,290415,,,N*42
$GPRMC,032302.898,V,,,,,0.12,90.99,290415,,,N*75
$GPRMC,032303.098,V,,,,,0.08,116.07,290415,,,N*4F
$GPRMC,032303.298,V,,,,,0.25,104.88,290415,,,N*46
$GPRMC,032303.498,V,,,,,0.05,118.99,290415,,,N*4F
$GPRMC,032303.698,V,,,,,0.27,258.94,290415,,,N*47
$GPRMC,032303.898,V,,,,,0.13,137.62,290415,,,N*4D
$GPRMC,032304.098,V,,,,,0.12,202.27,290415,,,N*47
$GPRMC,032304.298,V,,,,,0.20,259.09,290415,,,N*46
$GPRMC,032304.498,V,,,,,0.05,298.86,290415,,,N*4D
$GPRMC,032304.698,V,,,,,0.18,81.63,290415,,,N*72
$GPRMC,032304.898,V,,,,,0.02,46.08,290415,,,N*71
$GPRMC,032305.098,V,,,,,0.12,282.26,290415,,,N*4F
$GPRMC,032305.298,V,,,,,0.12,69.77,290415,,,N*7E
$GPRMC,032305.498,V,,,,,0.06,320.09,290415,,,N*4A
$GPRMC,032305.698,V,,,,,0.09,257.68,290415,,,N*41
$GPRMC,032305.898,V,,,,,0.07,123.86,290415,,,N*41
$GPRMC,032306.098,V,,,,,0.07,217.03,290415,,,N*43
$GPRMC,032306.298,V,,,,,0.37,273.85,290415,,,N*4E
$GPRMC,032306.498,V,,,,,0.04,192.83,290415,,,N*42
$GPRMC,032306.698,V,,,,,0.04,191.18,290415,,,N*41
$GPRMC,032306.898,V,,,,,0.03,292.56,290415,,,N*42
$GPRMC,032307.098,V,,,,,0.06,46.36,290415,,,N*73
$GPRMC,032307.298,V,,,,,0.07,56.13,290415,,,N*76
$GPRMC,032307.498,V,,,,,0.21,86.18,290415,,,N*72
$GPRMC,032307.698,V,,,,,0.29,98.87,290415,,,N*71
$GPRMC,032307.898,V,,,,,0.25,105.15,290415,,,N*4D
$GPRMC,032308.098,V,,,,,0.13,105.00,290415,,,N*4B
$GPRMC,032308.298,V,,,,,0.49,263.16,290415,,,N*42
$GPRMC,032308.498,V,,,,,0.39,272.31,290415,,,N*46
$GPRMC,032308.698,V,,,,,0.41,272.92,290415,,,N*42
$GPRMC,032308.898,V,,,,,0.16,280.86,290415,,,N*46
$GPRMC,032309.098,V,,,,,0.09,275.71,290415,,,N*43
$GPRMC,032309.298,V,,,,,0.21,92.18,290415,,,N*7F
$GPRMC,032309.498,V,,,,,0.08,45.58,290415,,,N*7C
$GPRMC,032309.698,V,,,,,0.03,214.27,290415,,,N*4B
$GPRMC,032309.898,V,,,,,0.12,180.46,290415,,,N*4C
$GPRMC,032310.098,V,,,,,0.15,208.21,290415,,,N*49
$GPRMC,032310.298,V,,,,,0.17,226.32,290415,,,N*47
$GPRMC,032310.498,V,,,,,0.10,141.11,290415,,,N*45
$GPRMC,032310.698,V,,,,,0.19,96.00,290415,,,N*75
$GPRMC,032310.898,V,,,,,0.21,93.60,290415,,,N*73
$GPRMC,032311.098,V,,,,,0.22,102.81,290415,,,N*4F
$GPRMC,032311.298,V,,,,,0.43,104.26,290415,,,N*41
$GPRMC,032311.498,V,,,,,0.21,109.87,290415,,,N*45
$GPRMC,032311.698,V,,,,,0.12,258.29,290415,,,N*44
$GPRMC,032311.898,V,,,,,0.10,221.39,290415,,,N*47
$GPRMC,032312.098,V,,,,,0.09,263.89,290415,,,N*49
$GPRMC,032312.298,V,,,,,0.17,100.93,290415,,,N*49
$GPRMC,032312.498,V,,,,,0.19,127.33,290415,,,N*4E
$GPRMC,032312.698,V,,,,,0.19,258.70,290415,,,N*40
$GPRMC,032312.898,V,,,,,0.29,270.80,290415,,,N*48
$GPRMC,032313.098,V,,,,,0.26,270.78,290415,,,N*49
$GPRMC,032313.298,V,,,,,0.16,251.59,290415,,,N*48
$GPRMC,032313.498,V,,,,,0.13,112.20,290415,,,N*41
$GPRMC,032313.698,V,,,,,0.05,41.73,290415,,,N*75
$GPRMC,032313.898,V,,,,,0.10,105.68,290415,,,N*44
$GPRMC,032314.098,V,,,,,0.01,114.19,290415,,,N*4D
$GPRMC,032314.298,V,,,,,0.05,21.93,290415,,,N*7E
$GPRMC,032314.498,V,,,,,0.10,61.22,290415,,,N*72
$GPRMC,032314.698,V,,,,,0.26,70.88,290415,,,N*75
$GPRMC,032314.898,V,,,,,0.14,69.12,290415,,,N*71
$GPRMC,032315.098,V,,,,,0.07,326.39,290415,,,N*4B
$GPRMC,032315.298,V,,,,,0.09,273.39,290415,,,N*46
$GPRMC,032315.498,V,,,,,0.28,281.39,290415,,,N*4E
$GPRMC,032315.698,V,,,,,0.15,252.07,290415,,,N*41
$GPRMC,032315.898,V,,,,,0.05,322.25,290415,,,N*48
$GPRMC,032316.098,V,,,,,0.25,73.93,290415,,,N*7B
$GPRMC,032316.298,V,,,,,0.16,104.71,290415,,,N*44
$GPRMC,032316.498,V,,,,,0.22,104.81,290415,,,N*4A
$GPRMC,032316.698,V,,,,,0.03,233.53,290415,,,N*43
$GPRMC,032316.898,V,,,,,0.12,212.42,290415,,,N*4E
$GPRMC,032317.098,V,,,,,0.04,261.18,290415,,,N*4B
$GPRMC,032317.298,V,,,,,0.12,293.19,290415,,,N*42
$GPRMC,032317.498,V,,,,,0.17,286.66,290415,,,N*4D
$GPRMC,032317.698,V,,,,,0.09,301.55,290415,,,N*4E
$GPRMC,032317.898,V,,,,,0.08,96.77,290415,,,N*7C
$GPRMC,032318.098,V,,,,,0.05,297.81,290415,,,N*4C
$GPRMC,032318.298,V,,,,,0.19,90.62,290415,,,N*7B
$GPRMC,032318.498,V,,,,,0.13,113.77,290415,,,N*49
$GPRMC,032318.698,V,,,,,0.08,310.66,290415,,,N*40
$GPRMC,032318.898,V,,,,,0.21,285.58,290415,,,N*45
$GPRMC,032319.098,V,,,,,0.11,96.48,290415,,,N*7E
$GPRMC,032319.298,V,,,,,0.38,94.02,290415,,,N*7B
$GPRMC,032319.498,V,,,,,0.10,80.62,290415,,,N*74
$GPRMC,032319.698,V,,,,,0.15,306.68,290415,,,N*44
$GPRMC,032319.898,V,,,,,0.26,282.74,290415,,,N*4A
$GPRMC,032320.089,V,,,,,0.29,264.81,290415,,,N*45
$GPRMC,032320.149,V,,,,,0.33,273.47,290415,,,N*4F
$GPRMC,032320.349,V,,,,,0.25,268.62,290415,,,N*47
$GPRMC,032320.549,V,,,,,0.14,254.79,290415,,,N*46
$GPRMC,032320.749,V,,,,,0.22,283.12,290415,,,N*46
$GPRMC,032320.949,V,,,,,0.29,281.74,290415,,,N*41
$GPRMC,032321.149,V,,,,,0.31,275.73,290415,,,N*4D
$GPRMC,032321.349,V,,,,,0.16,240.26,290415,,,N*4C
$GPRMC,032321.549,V,,,,,0.03,109.11,290415,,,N*44
$GPRMC,032321.749,V,,,,,0.13,54.60,290415,,,N*78
$GPRMC,032321.949,V,,,,,0.16,281.09,290415,,,N*46
$GPRMC,032322.149,V,,,,,0.06,169.85,290415,,,N*4D
$GPRMC,032322.349,V,,,,,0.16,160.05,290415,,,N*4F
$GPRMC,032322.549,V,,,,,0.22,114.26,290415,,,N*4C
$GPRMC,032322.749,V,,,,,0.28,103.68,290415,,,N*48
$GPRMC,032322.949,V,,,,,0.24,101.18,290415,,,N*4F
$GPRMC,032323.149,V,,,,,0.12,138.46,290415,,,N*42
$GPRMC,032323.349,V,,,,,0.06,202.38,290415,,,N*46
$GPRMC,032323.549,V,,,,,0.25,295.09,290415,,,N*4D
$GPRMC,032323.749,V,,,,,0.12,343.54,290415,,,N*49
$GPRMC,032323.949,V,,,,,0.16,267.57,290415,,,N*47
$GPRMC,032324.149,V,,,,,0.32,262.97,290415,,,N*47
$GPRMC,032324.349,V,,,,,0.19,278.56,290415,,,N*4A
$GPRMC,032324.549,V,,,,,0.07,284.29,290415,,,N*48
$GPRMC,032324.749,V,,,,,0.21,88.69,290415,,,N*74
$GPRMC,032324.949,V,,,,,0.11,98.02,290415,,,N*75
$GPRMC,032325.149,V,,,,,0.09,290.84,290415,,,N*41
$GPRMC,032325.349,V,,,,,0.09,146.89,290415,,,N*46
$GPRMC,032325.549,V,,,,,0.22,109.44,290415,,,N*43
$GPRMC,032325.749,V,,,,,0.13,6.24,290415,,,N*4B
$GPRMC,032325.949,V,,,,,0.17,302.94,290415,,,N*4D
$GPRMC,032326.089,V,,,,,0.09,320.93,290415,,,N*43
$GPRMC,032326.149,V,,,,,0.23,76.73,290415,,,N*78
$GPRMC,032326.349,V,,,,,0.05,289.94,290415,,,N*45
$GPRMC,032326.549,V,,,,,0.08,170.35,290415,,,N*40
$GPRMC,032326.749,V,,,,,0.22,127.41,290415,,,N*4B
$GPRMC,032326.949,V,,,,,0.03,140.34,290415,,,N*45
$GPRMC,032327.149,V,,,,,0.22,69.18,290415,,,N*7B
$GPRMC,032327.349,V,,,,,0.15,74.27,290415,,,N*7D
$GPRMC,032327.549,V,,,,,0.13,288.56,290415,,,N*4A
$GPRMC,032327.749,V,,,,,0.07,223.92,290415,,,N*44
$GPRMC,032327.949,V,,,,,0.05,92.34,290415,,,N*7C
$GPRMC,032328.149,V,,,,,0.22,78.51,290415,,,N*79
$GPRMC,032328.349,V,,,,,0.30,89.37,290415,,,N*76
$GPRMC,032328.549,V,,,,,0.04,7.94,290415,,,N*48
$GPRMC,032328.749,V,,,,,0.09,325.32,290415,,,N*48
$GPRMC,032328.949,V,,,,,0.08,5.84,290415,,,N*4B
$GPRMC,032329.149,V,,,,,0.10,71.29,290415,,,N*7F
$GPRMC,032329.349,V,,,,,0.04,2.41,290415,,,N*42
$GPRMC,032329.549,V,,,,,0.13,294.47,290415,,,N*49
$GPRMC,032329.749,V,,,,,0.04,269.78,290415,,,N*43
$GPRMC,032329.949,V,,,,,0.10,82.53,290415,,,N*76
$GPRMC,032330.149,V,,,,,0.42,92.47,290415,,,N*75
$GPRMC,032330.349,V,,,,,0.05,167.96,290415,,,N*43
$GPRMC,032330.549,V,,,,,0.04,242.47,290415,,,N*4C
$GPRMC,032330.749,V,,,,,0.15,265.65,290415,,,N*4B
$GPRMC,032330.949,V,,,,,0.11,268.33,290415,,,N*4F
$GPRMC,032331.149,V,,,,,0.15,294.37,290415,,,N*45
$GPRMC,032331.349,V,,,,,0.07,199.67,290415,,,N*4F
$GPRMC,032331.549,V,,,,,0.07,162.17,290415,,,N*4A
$GPRMC,032331.749,V,,,,,0.12,264.57,290415,,,N*4D
$GPRMC,032331.949,V,,,,,0.03,141.58,290415,,,N*48
$GPRMC,032332.094,V,,,,,0.08,7.92,290415,,,N*4C
$GPRMC,032332.294,A,3252.9295,N,11714.1311,W,0.13,6.97,290415,,,A*70
$GPRMC,032332.600,A,3252.9293,N,11714.1312,W,0.14,4.48,290415,,,A*7B
$GPRMC,032332.800,A,3252.9289,N,11714.1311,W,0.14,160.08,290415,,,A*7A
$GPRMC,032333.000,A,3252.9286,N,11714.1311,W,0.42,178.07,290415,,,A*79
$GPRMC,032333.200,A,3252.9284,N,11714.1310,W,0.63,185.46,290415,,,A*7C
$GPRMC,032333.400,A,3252.9284,N,11714.1310,W,0.69,186.37,290415,,,A*75
$GPRMC,032333.600,A,3252.9284,N,11714.1311,W,0.61,187.49,290415,,,A*76
$GPRMC,032333.800,A,3252.9284,N,11714.1311,W,0.54,186.82,290415,,,A*78
$GPRMC,032334.000,A,3252.9285,N,11714.1312,W,0.58,183.72,290415,,,A*73
$GPRMC,032334.200,A,3252.9285,N,11714.1312,W,0.61,180.39,290415,,,A*77
$GPRMC,032334.400,A,3252.9286,N,11714.1313,W,0.61,175.49,290415,,,A*7E
$GPRMC,032334.600,A,3252.9287,N,11714.1313,W,0.61,173.57,290415,,,A*74
$GPRMC,032334.800,A,3252.9288,N,11714.1313,W,0.56,173.34,290415,,,A*74
$GPRMC,032335.000,A,3252.9288,N,11714.1313,W,0.51,175.05,290415,,,A*7E
$GPRMC,032335.200,A,3252.9289,N,11714.1313,W,0.46,180.32,290415,,,A*75
$GPRMC,032335.400,A,3252.9289,N,11714.1314,W,0.42,183.26,290415,,,A*76
$GPRMC,032335.600,A,3252.9289,N,11714.1314,W,0.41,185.61,290415,,,A*72
$GPRMC,032335.800,A,3252.9290,N,11714.1315,W,0.40,185.83,290415,,,A*78
$GPRMC,032336.000,A,3252.9290,N,11714.1315,W,0.42,185.19,290415,,,A*72
$GPRMC,032336.200,A,3252.9290,N,11714.1316,W,0.43,183.80,290415,,,A*74
$GPRMC,032336.400,A,3252.9291,N,11714.1316,W,0.44,183.79,290415,,,A*72
$GPRMC,032336.600,A,3252.9292,N,11714.1317,W,0.37,190.65,290415,,,A*79
$GPRMC,032336.800,A,3252.9293,N,11714.1317,W,0.31,193.07,290415,,,A*77
$GPRMC,032337.000,A,3252.9294,N,11714.1318,W,0.27,202.99,290415,,,A*7D
$GPRMC,032337.200,A,3252.9294,N,11714.1318,W,0.25,208.40,290415,,,A*73
$GPRMC,032337.400,A,3252.9295,N,11714.1319,W,0.24,210.20,290415,,,A*7B
$GPRMC,032337.600,A,3252.9296,N,11714.1320,W,0.20,215.56,290415,,,A*70
$GPRMC,032337.800,A,3252.9297,N,11714.1320,W,0.17,213.99,290415,,,A*7E
$GPRMC,032338.000,A,3252.9298,N,11714.1321,W,0.16,203.85,290415,,,A*7A
$GPRMC,032338.200,A,3252.9298,N,11714.1321,W,0.14,206.26,290415,,,A*76
$GPRMC,032338.400,A,3252.9299,N,11714.1322,W,0.13,212.61,290415,,,A*73
$GPRMC,032338.600,A,3252.9299,N,11714.1323,W,0.12,204.99,290415,,,A*71
$GPRMC,032338.800,A,3252.9299,N,11714.1323,W,0.13,203.81,290415,,,A*70
$GPRMC,032339.000,A,3252.9300,N,11714.1323,W,0.12,190.96,290415,,,A*76
$GPRMC,032339.200,A,3252.9300,N,11714.1323,W,0.10,168.78,290415,,,A*71
$GPRMC,032339.400,A,3252.9301,N,11714.1324,W,0.13,146.85,290415,,,A*7C
$GPRMC,032339.600,A,3252.9301,N,11714.1324,W,0.15,143.52,290415,,,A*77
$GPRMC,032339.800,A,3252.9302,N,11714.1324,W,0.14,150.32,290415,,,A*7F
$GPRMC,032340.000,A,3252.9302,N,11714.1325,W,0.13,176.63,290415,,,A*7F
$GPRMC,032340.200,A,3252.9302,N,11714.1325,W,0.16,193.96,290415,,,A*79
$GPRMC,032340.400,A,3252.9302,N,11714.1326,W,0.18,179.19,290415,,,A*71
$GPRMC,032340.600,A,3252.9302,N,11714.1326,W,0.26,167.26,290415,,,A*7D
$GPRMC,032340.800,A,3252.9301,N,11714.1327,W,0.29,169.65,290415,,,A*77
$GPRMC,032341.000,A,3252.9302,N,11714.1327,W,0.28,171.32,290415,,,A*77
$GPRMC,032341.200,A,3252.9302,N,11714.1328,W,0.22,178.67,290415,,,A*79
$GPRMC,032341.400,A,3252.9303,N,11714.1328,W,0.16,191.23,290415,,,A*7E
$GPRMC,032341.600,A,3252.9304,N,11714.1329,W,0.11,215.47,290415,,,A*70
$GPRMC,032341.800,A,3252.9305,N,11714.1329,W,0.09,239.60,290415,,,A*7D
$GPRMC,032342.000,A,3252.9305,N,11714.1330,W,0.08,263.78,290415,,,A*79
$GPRMC,032342.200,A,3252.9306,N,11714.1331,W,0.06,267.26,290415,,,A*78
$GPRMC,032342.400,A,3252.9306,N,11714.1331,W,0.02,246.87,290415,,,A*72
$GPRMC,032342.600,A,3252.9306,N,11714.1331,W,0.03,131.27,290415,,,A*78
$GPRMC,032342.800,A,3252.9307,N,11714.1332,W,0.05,152.73,290415,,,A*76
$GPRMC,032343.000,A,3252.9307,N,11714.1332,W,0.04,171.14,290415,,,A*7E
$GPRMC,032343.200,A,3252.9307,N,11714.1333,W,0.04,169.51,290415,,,A*75
$GPRMC,032343.400,A,3252.9308,N,11714.1334,W,0.05,153.90,290415,,,A*7E
$GPRMC,032343.600,A,3252.9308,N,11714.1334,W,0.06,166.50,290415,,,A*75
$GPRMC,032343.800,A,3252.9308,N,11714.1335,W,0.06,167.59,290415,,,A*72
$GPRMC,032344.000,A,3252.9308,N,11714.1335,W,0.08,169.30,290415,,,A*72
$GPRMC,032344.200,A,3252.9308,N,11714.1336,W,0.12,159.23,290415,,,A*79
$GPRMC,032344.400,A,3252.9309,N,11714.1337,W,0.13,166.06,290415,,,A*75
$GPRMC,032344.600,A,3252.9309,N,11714.1337,W,0.12,183.14,290415,,,A*7E
$GPRMC,032344.800,A,3252.9309,N,11714.1338,W,0.12,182.55,290415,,,A*7B
$GPRMC,032345.000,A,3252.9309,N,11714.1338,W,0.12,169.54,290415,,,A*76
$GPRMC,032345.200,A,3252.9309,N,11714.1339,W,0.16,159.86,290415,,,A*7D
$GPRMC,032345.400,A,3252.9309,N,11714.1340,W,0.16,165.04,290415,,,A*70
$GPRMC,032345.600,A,3252.9309,N,11714.1340,W,0.15,175.91,290415,,,A*7C
$GPRMC,032345.800,A,3252.9310,N,11714.1341,W,0.14,181.40,290415,,,A*7D
$GPRMC,032346.000,A,3252.9310,N,11714.1341,W,0.13,189.65,290415,,,A*7E
$GPRMC,032346.200,A,3252.9310,N,11714.1342,W,0.14,197.69,290415,,,A*7B
$GPRMC,032346.400,A,3252.9310,N,11714.1343,W,0.14,199.82,290415,,,A*77
$GPRMC,032346.600,A,3252.9310,N,11714.1343,W,0.14,207.31,290415,,,A*79
$GPRMC,032346.800,A,3252.9310,N,11714.1344,W,0.15,205.59,290415,,,A*7D
$GPRMC,032347.000,A,3252.9310,N,11714.1344,W,0.15,211.20,290415,,,A*7F
$GPRMC,032347.200,A,3252.9311,N,11714.1345,W,0.14,199.56,290415,,,A*7E
$GPRMC,032347.400,A,3252.9311,N,11714.1345,W,0.16,167.30,290415,,,A*7B
$GPRMC,032347.600,A,3252.9311,N,11714.1345,W,0.22,146.11,290415,,,A*7E
$GPRMC,032347.800,A,3252.9310,N,11714.1345,W,0.24,143.74,290415,,,A*71
$GPRMC,032348.000,A,3252.9310,N,11714.1346,W,0.25,142.96,290415,,,A*79
$GPRMC,032348.200,A,3252.9310,N,11714.1346,W,0.23,143.70,290415,,,A*74
$GPRMC,032348.400,A,3252.9311,N,11714.1347,W,0.13,159.31,290415,,,A*7F
$GPRMC,032348.600,A,3252.9311,N,11714.1347,W,0.09,175.91,290415,,,A*72
$GPRMC,032348.800,A,3252.9311,N,11714.1347,W,0.09,178.50,290415,,,A*7C
$GPRMC,032349.000,A,3252.9311,N,11714.1348,W,0.09,178.16,290415,,,A*78
$GPRMC,032349.200,A,3252.9311,N,11714.1348,W,0.12,165.75,290415,,,A*79
$GPRMC,032349.400,A,3252.9310,N,11714.1348,W,0.15,160.45,290415,,,A*7F
$GPRMC,032349.600,A,3252.9310,N,11714.1348,W,0.16,171.30,290415,,,A*7C
$GPRMC,032349.800,A,3252.9310,N,11714.1349,W,0.18,175.38,290415,,,A*71
$GPRMC,032350.000,A,3252.9309,N,11714.1349,W,0.21,176.46,290415,,,A*79
$GPRMC,032350.200,A,3252.9309,N,11714.1349,W,0.18,180.34,290415,,,A*7D
$GPRMC,032350.400,A,3252.9310,N,11714.1349,W,0.15,162.68,290415,,,A*7B
$GPRMC,032350.600,A,3252.9310,N,11714.1350,W,0.12,169.53,290415,,,A*75
$GPRMC,032350.800,A,3252.9310,N,11714.1350,W,0.12,162.05,290415,,,A*73
$GPRMC,032351.000,A,3252.9310,N,11714.1350,W,0.11,148.53,290415,,,A*72
$GPRMC,032351.200,A,3252.9310,N,11714.1350,W,0.10,134.77,290415,,,A*7C
$GPRMC,032351.400,A,3252.9311,N,11714.1350,W,0.08,111.84,290415,,,A*79
$GPRMC,032351.600,A,3252.9311,N,11714.1350,W,0.08,61.92,290415,,,A*4A
$GPRMC,032351.800,A,3252.9311,N,11714.1351,W,0.08,35.38,290415,,,A*44
$GPRMC,032352.000,A,3252.9312,N,11714.1351,W,0.12,22.51,290415,,,A*4E
$GPRMC,032352.200,A,3252.9312,N,11714.1351,W,0.16,26.55,290415,,,A*48
$GPRMC,032352.400,A,3252.9312,N,11714.1351,W,0.17,14.81,290415,,,A*47
$GPRMC,032352.600,A,3252.9312,N,11714.1351,W,0.15,9.97,290415,,,A*7C
$GPRMC,032352.800,A,3252.9312,N,11714.1351,W,0.14,13.72,290415,,,A*43
$GPRMC,032353.000,A,3252.9311,N,11714.1352,W,0.09,7.62,290415,,,A*72
$GPRMC,032353.200,A,3252.9310,N,11714.1352,W,0.06,328.33,290415,,,A*74
$GPRMC,032353.400,A,3252.9309,N,11714.1352,W,0.04,290.15,290415,,,A*7E
$GPRMC,032353.600,A,3252.9308,N,11714.1353,W,0.02,209.49,290415,,,A*73
$GPRMC,032353.800,A,3252.9308,N,11714.1353,W,0.02,164.14,290415,,,A*7D
$GPRMC,032354.000,A,3252.9308,N,11714.1353,W,0.03,156.09,290415,,,A*7E
$GPRMC,032354.200,A,3252.9308,N,11714.1353,W,0.03,127.19,290415,,,A*7B
$GPRMC,032354.400,A,3252.9308,N,11714.1353,W,0.05,129.18,290415,,,A*74
$GPRMC,032354.600,A,3252.9308,N,11714.1353,W,0.06,122.85,290415,,,A*7A
$GPRMC,032354.800,A,3252.9308,N,11714.1354,W,0.05,116.26,290415,,,A*7E
$GPRMC,032355.000,A,3252.9308,N,11714.1354,W,0.07,107.28,290415,,,A*7B
$GPRMC,032355.200,A,3252.9307,N,11714.1354,W,0.06,99.48,290415,,,A*47
$GPRMC,032355.400,A,3252.9307,N,11714.1354,W,0.07,108.75,290415,,,A*77
$GPRMC,032355.600,A,3252.9306,N,11714.1354,W,0.11,125.28,290415,,,A*74
$GPRMC,032355.800,A,3252.9306,N,11714.1354,W,0.14,134.24,290415,,,A*73
$GPRMC,032356.000,A,3252.9305,N,11714.1355,W,0.16,144.32,290415,,,A*78
$GPRMC,032356.200,A,3252.9304,N,11714.1355,W,0.18,149.66,290415,,,A*79
$GPRMC,032356.400,A,3252.9303,N,11714.1355,W,0.20,151.72,290415,,,A*7F
$GPRMC,032356.600,A,3252.9303,N,11714.1356,W,0.18,160.93,290415,,,A*78
$GPRMC,032356.800,A,3252.9303,N,11714.1356,W,0.15,169.95,290415,,,A*74
$GPRMC,032357.000,A,3252.9303,N,11714.1356,W,0.11,196.26,290415,,,A*71
$GPRMC,032357.200,A,3252.9302,N,11714.1356,W,0.12,190.80,290415,,,A*7B
$GPRMC,032357.400,A,3252.9302,N,11714.1356,W,0.14,165.83,290415,,,A*72
$GPRMC,032357.600,A,3252.9301,N,11714.1356,W,0.15,161.23,290415,,,A*7C
$GPRMC,032357.800,A,3252.9301,N,11714.1356,W,0.16,161.74,290415,,,A*73
$GPRMC,032358.000,A,3252.9300,N,11714.1356,W,0.14,174.84,290415,,,A*7C
$GPRMC,032358.200,A,3252.9300,N,11714.1356,W,0.12,210.69,290415,,,A*7A
$GPRMC,032358.400,A,3252.9299,N,11714.1357,W,0.09,209.40,290415,,,A*75
$GPRMC,032358.600,A,3252.9298,N,11714.1357,W,0.08,219.33,290415,,,A*72
$GPRMC,032358.800,A,3252.9298,N,11714.1356,W,0.09,211.94,290415,,,A*79
$GPRMC,032359.000,A,3252.9297,N,11714.1356,W,0.09,199.44,290415,,,A*71
$GPRMC,032359.200,A,3252.9297,N,11714.1356,W,0.10,148.22,290415,,,A*77
$GPRMC,032359.400,A,3252.9297,N,11714.1355,W,0.11,121.42,290415,,,A*7A
$GPRMC,032359.600,A,3252.9296,N,11714.1355,W,0.14,111.59,290415,,,A*75
$GPRMC,032359.800,A,3252.9296,N,11714.1355,W,0.13,111.36,290415,,,A*75
$GPRMC,032400.000,A,3252.9295,N,11714.1355,W,0.08,106.19,290415,,,A*74
$GPRMC,032400.200,A,3252.9295,N,11714.1354,W,0.06,116.94,290415,,,A*7D
$GPRMC,032400.400,A,3252.9294,N,11714.1354,W,0.08,151.41,290415,,,A*7F
$GPRMC,032400.600,A,3252.9293,N,11714.1354,W,0.15,156.07,290415,,,A*73
$GPRMC,032400.800,A,3252.9292,N,11714.1354,W,0.17,155.32,290415,,,A*7B
$GPRMC,032401.000,A,3252.9291,N,11714.1353,W,0.21,154.51,290415,,,A*77
$GPRMC,032401.200,A,3252.9291,N,11714.1353,W,0.24,153.22,290415,,,A*73
$GPRMC,032401.400,A,3252.9290,N,11714.1353,W,0.23,150.05,290415,,,A*75
$GPRMC,032401.600,A,3252.9289,N,11714.1352,W,0.24,148.90,290415,,,A*7C
$GPRMC,032401.800,A,3252.9289,N,11714.1352,W,0.23,146.01,290415,,,A*73
$GPRMC,032402.000,A,3252.9288,N,11714.1352,W,0.24,140.29,290415,,,A*72
$GPRMC,032402.200,A,3252.9288,N,11714.1351,W,0.24,137.10,290415,,,A*79
$GPRMC,032402.400,A,3252.9288,N,11714.1351,W,0.20,133.17,290415,,,A*78
$GPRMC,032402.600,A,3252.9288,N,11714.1351,W,0.18,135.05,290415,,,A*74
$GPRMC,032402.800,A,3252.9287,N,11714.1350,W,0.20,133.34,290415,,,A*7B
$GPRMC,032403.000,A,3252.9287,N,11714.1350,W,0.20,127.97,290415,,,A*7E
$GPRMC,032403.200,A,3252.9287,N,11714.1349,W,0.14,128.95,290415,,,A*7E
$GPRMC,032403.400,A,3252.9286,N,11714.1349,W,0.09,127.10,290415,,,A*77
$GPRMC,032403.600,A,3252.9286,N,11714.1349,W,0.06,110.10,290415,,,A*7E
$GPRMC,032403.800,A,3252.9286,N,11714.1348,W,0.06,93.12,290415,,,A*49
$GPRMC,032404.000,A,3252.9286,N,11714.1348,W,0.05,55.14,290415,,,A*49
$GPRMC,032404.200,A,3252.9286,N,11714.1348,W,0.05,23.32,290415,,,A*4E
$GPRMC,032404.400,A,3252.9285,N,11714.1348,W,0.05,7.89,290415,,,A*7D
$GPRMC,032404.600,A,3252.9285,N,11714.1347,W,0.05,349.42,290415,,,A*7E
$GPRMC,032404.800,A,3252.9284,N,11714.1347,W,0.04,349.47,290415,,,A*75
$GPRMC,032405.000,A,3252.9283,N,11714.1347,W,0.02,37.88,290415,,,A*44
$GPRMC,032405.200,A,3252.9283,N,11714.1346,W,0.02,307.42,290415,,,A*71
$GPRMC,032405.400,A,3252.9282,N,11714.1346,W,0.05,260.86,290415,,,A*79
$GPRMC,032405.600,A,3252.9282,N,11714.1346,W,0.07,241.81,290415,,,A*7D
$GPRMC,032405.800,A,3252.9282,N,11714.1346,W,0.07,220.85,290415,,,A*70
$GPRMC,032406.000,A,3252.9282,N,11714.1346,W,0.10,212.66,290415,,,A*71
$GPRMC,032406.200,A,3252.9282,N,11714.1346,W,0.13,220.83,290415,,,A*7A
$GPRMC,032406.400,A,3252.9282,N,11714.1346,W,0.12,202.94,290415,,,A*7B
$GPRMC,032406.600,A,3252.9282,N,11714.1346,W,0.12,196.12,290415,,,A*79
$GPRMC,032406.800,A,3252.9282,N,11714.1346,W,0.11,194.56,290415,,,A*76
$GPRMC,032407.000,A,3252.9282,N,11714.1346,W,0.09,188.52,290415,,,A*7F
$GPRMC,032407.200,A,3252.9282,N,11714.1346,W,0.07,181.71,290415,,,A*7B
$GPRMC,032407.400,A,3252.9282,N,11714.1346,W,0.11,147.66,290415,,,A*76
$GPRMC,032407.600,A,3252.9282,N,11714.1346,W,0.19,137.94,290415,,,A*76
$GPRMC,032407.800,A,3252.9282,N,11714.1346,W,0.20,139.62,290415,,,A*75
$GPRMC,032408.000,A,3252.9281,N,11714.1346,W,0.21,143.06,290415,,,A*7F
$GPRMC,032408.200,A,3252.9281,N,11714.1346,W,0.19,155.65,290415,,,A*74
$GPRMC,032408.400,A,3252.9281,N,11714.1346,W,0.18,157.82,290415,,,A*78
$GPRMC,032408.600,A,3252.9281,N,11714.1346,W,0.18,152.35,290415,,,A*73
$GPRMC,032408.800,A,3252.9281,N,11714.1346,W,0.16,154.69,290415,,,A*7C
$GPRMC,032409.000,A,3252.9281,N,11714.1346,W,0.11,153.79,290415,,,A*74
$GPRMC,032409.200,A,3252.9281,N,11714.1346,W,0.06,149.82,290415,,,A*7F
$GPRMC,032409.400,A,3252.9281,N,11714.1346,W,0.07,136.13,290415,,,A*78
$GPRMC,032409.600,A,3252.9281,N,11714.1345,W,0.12,119.78,290415,,,A*7D
$GPRMC,032409.800,A,3252.9281,N,11714.1345,W,0.11,121.14,290415,,,A*71
$GPRMC,032410.000,A,3252.9281,N,11714.1345,W,0.10,134.87,290415,,,A*7E
$GPRMC,032410.200,A,3252.9281,N,11714.1345,W,0.13,141.79,290415,,,A*7C
$GPRMC,032410.400,A,3252.9281,N,11714.1345,W,0.08,165.63,290415,,,A*7D
$GPRMC,032410.600,A,3252.9281,N,11714.1345,W,0.05,181.24,290415,,,A*7B
$GPRMC,032410.800,A,3252.9281,N,11714.1345,W,0.05,178.67,290415,,,A*74
$GPRMC,032411.000,A,3252.9280,N,11714.1345,W,0.05,196.00,290415,,,A*7D
$GPRMC,032411.200,A,3252.9280,N,11714.1345,W,0.02,189.43,290415,,,A*71
$GPRMC,032411.400,A,3252.9280,N,11714.1345,W,0.02,354.52,290415,,,A*75
$GPRMC,032411.600,A,3252.9280,N,11714.1345,W,0.05,2.46,290415,,,A*75
$GPRMC,032411.800,A,3252.9280,N,11714.1345,W,0.06,15.75,290415,,,A*4E
$GPRMC,032412.000,A,3252.9280,N,11714.1345,W,0.06,16.66,290415,,,A*44
$GPRMC,032412.200,A,3252.9281,N,11714.1345,W,0.06,4.09,290415,,,A*7D
$GPRMC,032412.400,A,3252.9281,N,11714.1345,W,0.08,3.61,290415,,,A*7C
$GPRMC,032412.600,A,3252.9281,N,11714.1345,W,0.09,27.53,290415,,,A*48
$GPRMC,032412.800,A,3252.9281,N,11714.1345,W,0.09,30.98,290415,,,A*47
$GPRMC,032413.000,A,3252.9281,N,11714.1345,W,0.10,23.34,290415,,,A*42
$GPRMC,032413.200,A,3252.9281,N,11714.1345,W,0.10,19.41,290415,,,A*4B
$GPRMC,032413.400,A,3252.9281,N,11714.1345,W,0.08,5.60,290415,,,A*7A
$GPRMC,032413.600,A,3252.9281,N,11714.1345,W,0.06,320.48,290415,,,A*78
$GPRMC,032413.800,A,3252.9281,N,11714.1345,W,0.03,327.45,290415,,,A*79
$GPRMC,032414.000,A,3252.9281,N,11714.1345,W,0.03,97.84,290415,,,A*43
$GPRMC,032414.200,A,3252.9281,N,11714.1345,W,0.05,113.33,290415,,,A*76
$GPRMC,032414.400,A,3252.9281,N,11714.1345,W,0.07,113.12,290415,,,A*71
$GPRMC,032414.600,A,3252.9281,N,11714.1345,W,0.10,126.14,290415,,,A*75
$GPRMC,032414.800,A,3252.9281,N,11714.1345,W,0.11,133.26,290415,,,A*7F
$GPRMC,032415.000,A,3252.9281,N,11714.1345,W,0.12,147.99,290415,,,A*72
$GPRMC,032415.200,A,3252.9281,N,11714.1345,W,0.09,183.77,290415,,,A*72
$GPRMC,032415.400,A,3252.9281,N,11714.1345,W,0.10,217.95,290415,,,A*7E
$GPRMC,032415.600,A,3252.9280,N,11714.1345,W,0.13,244.08,290415,,,A*7C
$GPRMC,032415.800,A,3252.9280,N,11714.1345,W,0.14,247.88,290415,,,A*7E
$GPRMC,032416.000,A,3252.9280,N,11714.1345,W,0.14,252.99,290415,,,A*71
$GPRMC,032416.200,A,3252.9280,N,11714.1345,W,0.18,261.08,290415,,,A*77
$GPRMC,032416.400,A,3252.9280,N,11714.1345,W,0.18,249.81,290415,,,A*7A
$GPRMC,032416.600,A,3252.9280,N,11714.1345,W,0.16,229.67,290415,,,A*78
$GPRMC,032416.800,A,3252.9280,N,11714.1345,W,0.16,233.49,290415,,,A*71
$GPRMC,032417.000,A,3252.9280,N,11714.1345,W,0.14,231.74,290415,,,A*76
$GPRMC,032417.200,A,3252.9280,N,11714.1346,W,0.10,231.88,290415,,,A*70
$GPRMC,032417.400,A,3252.9280,N,11714.1346,W,0.05,224.13,290415,,,A*74
$GPRMC,032417.600,A,3252.9280,N,11714.1346,W,0.03,144.38,290415,,,A*7C
$GPRMC,032417.800,A,3252.9280,N,11714.1346,W,0.02,143.51,290415,,,A*7B
$GPRMC,032418.000,A,3252.9280,N,11714.1346,W,0.03,234.41,290415,,,A*7F
$GPRMC,032418.200,A,3252.9280,N,11714.1346,W,0.04,228.79,290415,,,A*7C
$GPRMC,032418.400,A,3252.9280,N,11714.1346,W,0.06,219.97,290415,,,A*7A
$GPRMC,032418.600,A,3252.9280,N,11714.1346,W,0.07,177.19,290415,,,A*74
$GPRMC,032418.800,A,3252.9280,N,11714.1346,W,0.08,172.23,290415,,,A*79
$GPRMC,032419.000,A,3252.9280,N,11714.1346,W,0.08,173.80,290415,,,A*78
$GPRMC,032419.200,A,3252.9280,N,11714.1346,W,0.07,175.86,290415,,,A*75
$GPRMC,032419.400,A,3252.9280,N,11714.1346,W,0.05,210.41,290415,,,A*7A
$GPRMC,032419.600,A,3252.9280,N,11714.1346,W,0.03,230.09,290415,,,A*70
$GPRMC,032419.800,A,3252.9280,N,11714.1346,W,0.03,268.53,290415,,,A*7C
$GPRMC,032420.000,A,3252.9280,N,11714.1346,W,0.09,294.23,290415,,,A*70
$GPRMC,032420.200,A,3252.9280,N,11714.1346,W,0.12,297.02,290415,,,A*78
$GPRMC,032420.400,A,3252.9280,N,11714.1346,W,0.11,273.73,290415,,,A*71
$GPRMC,032420.600,A,3252.9280,N,11714.1346,W,0.12,250.11,290415,,,A*75
$GPRMC,032420.800,A,3252.9280,N,11714.1346,W,0.13,237.72,290415,,,A*7E
$GPRMC,032421.000,A,3252.9280,N,11714.1346,W,0.12,221.07,290415,,,A*73
$GPRMC,032421.200,A,3252.9280,N,11714.1346,W,0.13,205.86,290415,,,A*7F
$GPRMC,032421.400,A,3252.9280,N,11714.1346,W,0.13,202.33,290415,,,A*70
$GPRMC,032421.600,A,3252.9280,N,11714.1346,W,0.15,201.01,290415,,,A*76
$GPRMC,032421.800,A,3252.9279,N,11714.1346,W,0.16,199.39,290415,,,A*74
$GPRMC,032422.000,A,3252.9279,N,11714.1346,W,0.17,188.37,290415,,,A*70
$GPRMC,032422.200,A,3252.9279,N,11714.1346,W,0.18,176.61,290415,,,A*7F
$GPRMC,032422.400,A,3252.9279,N,11714.1346,W,0.16,172.60,290415,,,A*72
$GPRMC,032422.600,A,3252.9279,N,11714.1346,W,0.13,172.91,290415,,,A*7B
$GPRMC,032422.800,A,3252.9279,N,11714.1346,W,0.12,183.77,290415,,,A*72
$GPRMC,032423.000,A,3252.9279,N,11714.1346,W,0.11,210.52,290415,,,A*76
$GPRMC,032423.200,A,3252.9279,N,11714.1346,W,0.12,226.45,290415,,,A*74
$GPRMC,032423.400,A,3252.9279,N,11714.1346,W,0.13,219.77,290415,,,A*7E
$GPRMC,032423.600,A,3252.9279,N,11714.1346,W,0.15,222.47,290415,,,A*71
$GPRMC,032423.800,A,3252.9279,N,11714.1346,W,0.16,220.82,290415,,,A*77
$GPRMC,032424.000,A,3252.9279,N,11714.1347,W,0.17,215.75,290415,,,A*76
$GPRMC,032424.200,A,3252.9279,N,11714.1347,W,0.18,220.99,290415,,,A*7F
$GPRMC,032424.400,A,3252.9278,N,11714.1347,W,0.18,210.39,290415,,,A*71
$GPRMC,032424.600,A,3252.9278,N,11714.1347,W,0.19,203.98,290415,,,A*7B
$GPRMC,032424.800,A,3252.9278,N,11714.1347,W,0.20,206.28,290415,,,A*71
$GPRMC,032425.000,A,3252.9278,N,11714.1347,W,0.21,215.58,290415,,,A*7C
$GPRMC,032425.200,A,3252.9278,N,11714.1347,W,0.22,221.37,290415,,,A*73
$GPRMC,032425.400,A,3252.9278,N,11714.1347,W,0.21,216.43,290415,,,A*71
$GPRMC,032425.600,A,3252.9278,N,11714.1347,W,0.19,206.12,290415,,,A*7D
$GPRMC,032425.800,A,3252.9278,N,11714.1347,W,0.20,202.42,290415,,,A*78
$GPRMC,032426.000,A,3252.9278,N,11714.1347,W,0.20,205.01,290415,,,A*73
$GPRMC,032426.200,A,3252.9278,N,11714.1347,W,0.19,190.75,290415,,,A*77
$GPRMC,032426.400,A,3252.9277,N,11714.1347,W,0.19,175.77,290415,,,A*77
$GPRMC,032426.600,A,3252.9277,N,11714.1347,W,0.21,168.05,290415,,,A*77
$GPRMC,032426.800,A,3252.9277,N,11714.1347,W,0.21,169.50,290415,,,A*78
$GPRMC,032427.000,A,3252.9277,N,11714.1347,W,0.21,179.45,290415,,,A*74
$GPRMC,032427.200,A,3252.9277,N,11714.1347,W,0.22,182.75,290415,,,A*72
$GPRMC,032427.400,A,3252.9277,N,11714.1347,W,0.23,182.42,290415,,,A*71
$GPRMC,032427.600,A,3252.9277,N,11714.1347,W,0.25,196.20,290415,,,A*74
$GPRMC,032427.800,A,3252.9276,N,11714.1347,W,0.27,192.40,290415,,,A*7B
$GPRMC,032428.000,A,3252.9276,N,11714.1347,W,0.30,189.83,290415,,,A*7F
$GPRMC,032428.200,A,3252.9276,N,11714.1347,W,0.33,183.75,290415,,,A*7D
$GPRMC,032428.400,A,3252.9276,N,11714.1347,W,0.37,175.97,290415,,,A*7A
$GPRMC,032428.600,A,3252.9276,N,11714.1347,W,0.39,179.41,290415,,,A*71
$GPRMC,032428.800,A,3252.9276,N,11714.1347,W,0.40,180.24,290415,,,A*74
$GPRMC,032429.000,A,3252.9275,N,11714.1347,W,0.42,177.50,290415,,,A*77
$GPRMC,032429.200,A,3252.9275,N,11714.1347,W,0.44,176.55,290415,,,A*77
$GPRMC,032429.400,A,3252.9275,N,11714.1347,W,0.46,178.95,290415,,,A*71
$GPRMC,032429.600,A,3252.9274,N,11714.1347,W,0.48,180.51,290415,,,A*73
$GPRMC,032429.800,A,3252.9274,N,11714.1347,W,0.49,180.14,290415,,,A*7D
$GPRMC,032430.000,A,3252.9274,N,11714.1347,W,0.51,177.39,290415,,,A*73
$GPRMC,032430.200,A,3252.9274,N,11714.1347,W,0.51,178.47,290415,,,A*77
$GPRMC,032430.400,A,3252.9273,N,11714.1347,W,0.51,180.13,290415,,,A*70
$GPRMC,032430.600,A,3252.9273,N,11714.1347,W,0.49,180.90,290415,,,A*70
$GPRMC,032430.800,A,3252.9273,N,11714.1347,W,0.48,183.51,290415,,,A*71
$GPRMC,032431.000,A,3252.9273,N,11714.1347,W,0.45,185.83,290415,,,A*7C
$GPRMC,032431.200,A,3252.9272,N,11714.1347,W,0.43,188.82,290415,,,A*75
$GPRMC,032431.400,A,3252.9272,N,11714.1347,W,0.42,190.31,290415,,,A*73
$GPRMC,032431.600,A,3252.9272,N,11714.1348,W,0.42,187.55,290415,,,A*7A
$GPRMC,032431.800,A,3252.9272,N,11714.1348,W,0.42,187.64,290415,,,A*76
$GPRMC,032432.000,A,3252.9271,N,11714.1348,W,0.41,188.70,290415,,,A*77
$GPRMC,032432.200,A,3252.9271,N,11714.1348,W,0.39,188.36,290415,,,A*78
$GPRMC,032432.400,A,3252.9271,N,11714.1348,W,0.39,187.88,290415,,,A*74
$GPRMC,032432.600,A,3252.9271,N,11714.1348,W,0.40,182.86,290415,,,A*73
$GPRMC,032432.800,A,3252.9270,N,11714.1348,W,0.42,180.09,290415,,,A*7B
$GPRMC,032433.000,A,3252.9270,N,11714.1348,W,0.46,176.44,290415,,,A*76
$GPRMC,032433.200,A,3252.9270,N,11714.1348,W,0.49,180.45,290415,,,A*73
$GPRMC,032433.400,A,3252.9270,N,11714.1348,W,0.52,183.04,290415,,,A*79
$GPRMC,032433.600,A,3252.9269,N,11714.1348,W,0.55,182.21,290415,,,A*72
$GPRMC,032433.800,A,3252.9269,N,11714.1348,W,0.57,182.12,290415,,,A*7E
$GPRMC,032434.000,A,3252.9269,N,11714.1348,W,0.59,182.66,290415,,,A*7C
$GPRMC,032434.200,A,3252.9268,N,11714.1348,W,0.59,183.41,290415,,,A*7B
$GPRMC,032434.400,A,3252.9268,N,11714.1348,W,0.58,184.82,290415,,,A*74
$GPRMC,032434.600,A,3252.9268,N,11714.1348,W,0.55,184.78,290415,,,A*7E
$GPRMC,032434.800,A,3252.9267,N,11714.1349,W,0.54,187.33,290415,,,A*73
$GPRMC,032435.000,A,3252.9267,N,11714.1349,W,0.53,192.66,290415,,,A*79
$GPRMC,032435.200,A,3252.9266,N,11714.1350,W,0.53,197.43,290415,,,A*70
$GPRMC,032435.400,A,3252.9266,N,11714.1350,W,0.53,198.35,290415,,,A*78
$GPRMC,032435.600,A,3252.9265,N,11714.1350,W,0.53,194.58,290415,,,A*7E
$GPRMC,032435.800,A,3252.9265,N,11714.1350,W,0.53,193.56,290415,,,A*79
$GPRMC,032436.000,A,3252.9264,N,11714.1351,W,0.53,194.73,290415,,,A*72
$GPRMC,032436.200,A,3252.9264,N,11714.1351,W,0.53,194.38,290415,,,A*7F
$GPRMC,032436.400,A,3252.9264,N,11714.1351,W,0.52,192.48,290415,,,A*79
$GPRMC,032436.600,A,3252.9263,N,11714.1351,W,0.54,188.22,290415,,,A*7D
$GPRMC,032436.800,A,3252.9263,N,11714.1351,W,0.54,187.60,290415,,,A*7A
$GPRMC,032437.000,A,3252.9262,N,11714.1351,W,0.54,186.57,290415,,,A*77
$GPRMC,032437.200,A,3252.9262,N,11714.1352,W,0.53,184.94,290415,,,A*7C
$GPRMC,032437.400,A,3252.9262,N,11714.1352,W,0.51,186.63,290415,,,A*72
$GPRMC,032437.600,A,3252.9262,N,11714.1352,W,0.49,190.07,290415,,,A*7C
$GPRMC,032437.800,A,3252.9262,N,11714.1353,W,0.48,191.54,290415,,,A*75
$GPRMC,032438.000,A,3252.9261,N,11714.1353,W,0.48,189.47,290415,,,A*7A
$GPRMC,032438.200,A,3252.9261,N,11714.1353,W,0.47,186.10,290415,,,A*7A
$GPRMC,032438.400,A,3252.9261,N,11714.1353,W,0.47,183.39,290415,,,A*72
$GPRMC,032438.600,A,3252.9260,N,11714.1353,W,0.48,184.17,290415,,,A*75
$GPRMC,032438.800,A,3252.9260,N,11714.1353,W,0.49,183.58,290415,,,A*76
$GPRMC,032439.000,A,3252.9260,N,11714.1353,W,0.51,185.49,290415,,,A*70
$GPRMC,032439.200,A,3252.9260,N,11714.1353,W,0.52,190.88,290415,,,A*78
$GPRMC,032439.400,A,3252.9259,N,11714.1353,W,0.53,194.03,290415,,,A*72
$GPRMC,032439.600,A,3252.9259,N,11714.1353,W,0.56,192.37,290415,,,A*74
$GPRMC,032439.800,A,3252.9259,N,11714.1353,W,0.58,191.06,290415,,,A*75
$GPRMC,032440.000,A,3252.9258,N,11714.1353,W,0.59,187.81,290415,,,A*7B
$GPRMC,032440.200,A,3252.9258,N,11714.1353,W,0.60,185.71,290415,,,A*7E
$GPRMC,032440.400,A,3252.9258,N,11714.1353,W,0.61,183.66,290415,,,A*79
$GPRMC,032440.600,A,3252.9257,N,11714.1354,W,0.62,186.50,290415,,,A*70
$GPRMC,032440.800,A,3252.9256,N,11714.1355,W,0.63,189.30,290415,,,A*76
$GPRMC,032441.000,A,3252.9256,N,11714.1355,W,0.62,194.02,290415,,,A*73
$GPRMC,032441.200,A,3252.9257,N,11714.1355,W,0.60,198.03,290415,,,A*7F
