
$GPRMC,235945.800,V,,,,,0.00,0.00,050180,,,N*45
$GPRMC,235946.000,V,,,,,0.00,0.00,050180,,,N*4E
$GPRMC,235946.200,V,,,,,0.00,0.00,050180,,,N*4C
$GPRMC,235946.399,V,,,,,0.00,0.00,050180,,,N*4D
$GPRMC,235946.600,V,,,,,0.00,0.00,050180,,,N*48
$GPRMC,235946.799,V,,,,,0.00,0.00,050180,,,N*49
$GPRMC,235947.000,V,,,,,0.00,0.00,050180,,,N*4F
$GPRMC,235947.200,V,,,,,0.00,0.00,050180,,,N*4D
$GPRMC,235947.399,V,,,,,0.00,0.00,050180,,,N*4C
$GPRMC,235947.600,V,,,,,0.00,0.00,050180,,,N*49
$GPRMC,235947.799,V,,,,,0.00,0.00,050180,,,N*48
$GPRMC,235948.000,V,,,,,0.00,0.00,050180,,,N*40
$GPRMC,235948.200,V,,,,,0.00,0.00,050180,,,N*42
$GPRMC,235948.400,V,,,,,0.00,0.00,050180,,,N*44
$GPRMC,235948.599,V,,,,,0.00,0.00,050180,,,N*45
$GPRMC,235948.799,V,,,,,0.00,0.00,050180,,,N*47
$GPRMC,235949.000,V,,,,,0.00,0.00,050180,,,N*41
$GPRMC,235949.200,V,,,,,0.00,0.00,050180,,,N*43
$GPRMC,235949.400,V,,,,,0.00,0.00,050180,,,N*45
$GPRMC,235949.599,V,,,,,0.00,0.00,050180,,,N*44
$GPRMC,235949.799,V,,,,,0.00,0.00,050180,,,N*46
$GPRMC,235950.000,V,,,,,0.00,0.00,050180,,,N*49
$GPRMC,235950.200,V,,,,,0.00,0.00,050180,,,N*4B
$GPRMC,235950.400,V,,,,,0.00,0.00,050180,,,N*4D
$GPRMC,235950.599,V,,,,,0.00,0.00,050180,,,N*4C
$GPRMC,235950.799,V,,,,,0.00,0.00,050180,,,N*4E
$GPRMC,235951.000,V,,,,,0.00,0.00,050180,,,N*48
$GPRMC,235951.200,V,,,,,0.00,0.00,050180,,,N*4A
$GPRMC,235951.400,V,,,,,0.00,0.00,050180,,,N*4C
$GPRMC,235951.599,V,,,,,0.00,0.00,050180,,,N*4D
$GPRMC,235951.799,V,,,,,0.00,0.00,050180,,,N*4F
$GPRMC,235952.000,V,,,,,0.00,0.00,050180,,,N*4B
$GPRMC,235952.199,V,,,,,0.00,0.00,050180,,,N*4A
$GPRMC,235952.400,V,,,,,0.00,0.00,050180,,,N*4F
$GPRMC,235952.599,V,,,,,0.00,0.00,050180,,,N*4E
$GPRMC,235952.800,V,,,,,0.00,0.00,050180,,,N*43
$GPRMC,235953.000,V,,,,,0.00,0.00,050180,,,N*4A
$GPRMC,235953.199,V,,,,,0.00,0.00,050180,,,N*4B
$GPRMC,235953.400,V,,,,,0.00,0.00,050180,,,N*4E
$GPRMC,235953.599,V,,,,,0.00,0.00,050180,,,N*4F
$GPRMC,235953.800,V,,,,,0.00,0.00,050180,,,N*42
$GPRMC,235954.000,V,,,,,0.00,0.00,050180,,,N*4D
$GPRMC,235954.199,V,,,,,0.00,0.00,050180,,,N*4C
$GPRMC,235954.380,V,,,,,0.00,0.00,050180,,,N*46
$GPRMC,235954.420,V,,,,,0.00,0.00,050180,,,N*4B
$GPRMC,235954.621,V,,,,,0.00,0.00,050180,,,N*48
$GPRMC,235954.820,V,,,,,0.00,0.00,050180,,,N*47
$GPRMC,235955.021,V,,,,,0.00,0.00,050180,,,N*4F
$GPRMC,235955.221,V,,,,,0.00,0.00,050180,,,N*4D
$GPRMC,235955.420,V,,,,,0.00,0.00,050180,,,N*4A
$GPRMC,041703.320,V,,,,,0.00,0.00,090180,,,N*4D
$GPRMC,041703.521,V,,,,,0.00,0.00,090180,,,N*4A
$GPRMC,041703.721,V,,,,,0.00,0.00,090180,,,N*48
$GPRMC,041703.920,V,,,,,0.00,0.00,090180,,,N*47
$GPRMC,041704.120,V,,,,,0.00,0.00,090180,,,N*48
$GPRMC,041704.320,V,,,,,0.00,0.00,090180,,,N*4A
$GPRMC,041704.521,V,,,,,0.00,0.00,090180,,,N*4D
$GPRMC,041704.721,V,,,,,0.00,0.00,090180,,,N*4F
$GPRMC,041704.920,V,,,,,0.00,0.00,090180,,,N*40
$GPRMC,041705.120,V,,,,,0.00,0.00,090180,,,N*49
$GPRMC,041705.320,V,,,,,0.00,0.00,090180,,,N*4B
$GPRMC,041705.521,V,,,,,0.00,0.00,090180,,,N*4C
$GPRMC,041705.721,V,,,,,0.00,0.00,090180,,,N*4E
$GPRMC,041705.920,V,,,,,0.00,0.00,090180,,,N*41
$GPRMC,041706.120,V,,,,,0.00,0.00,090180,,,N*4A
$GPRMC,041706.320,V,,,,,0.00,0.00,090180,,,N*48
$GPRMC,041706.521,V,,,,,0.00,0.00,090180,,,N*4F
$GPRMC,041706.721,V,,,,,0.00,0.00,090180,,,N*4D
$GPRMC,041706.920,V,,,,,0.00,0.00,090180,,,N*42
$GPRMC,041707.120,V,,,,,0.00,0.00,090180,,,N*4B
$GPRMC,041707.320,V,,,,,0.00,0.00,090180,,,N*49
$GPRMC,041707.521,V,,,,,0.00,0.00,090180,,,N*4E
$GPRMC,041707.721,V,,,,,0.00,0.00,090180,,,N*4C
$GPRMC,041707.920,V,,,,,0.00,0.00,090180,,,N*43
$GPRMC,041708.085,V,,,,,0.00,0.00,090180,,,N*4A
$GPRMC,041708.125,V,,,,,0.00,0.00,090180,,,N*41
$GPRMC,041708.325,V,,,,,0.00,0.00,090180,,,N*43
$GPRMC,041708.525,V,,,,,0.00,0.00,090180,,,N*45
$GPRMC,041708.724,V,,,,,0.00,0.00,090180,,,N*46
$GPRMC,041708.924,V,,,,,0.00,0.00,090180,,,N*48
$GPRMC,041709.125,V,,,,,0.00,0.00,090180,,,N*40
$GPRMC,041709.325,V,,,,,0.00,0.00,090180,,,N*42
$GPRMC,041709.525,V,,,,,0.00,0.00,090180,,,N*44
$GPRMC,041709.724,V,,,,,0.00,0.00,090180,,,N*47
$GPRMC,041709.924,V,,,,,0.00,0.00,090180,,,N*49
$GPRMC,041710.125,V,,,,,0.00,0.00,090180,,,N*48
$GPRMC,041710.325,V,,,,,0.00,0.00,090180,,,N*4A
$GPRMC,041710.525,V,,,,,0.00,0.00,090180,,,N*4C
$GPRMC,041710.724,V,,,,,0.00,0.00,090180,,,N*4F
$GPRMC,041710.924,V,,,,,0.00,0.00,090180,,,N*41
$GPRMC,041711.125,V,,,,,0.00,0.00,090180,,,N*49
$GPRMC,041711.325,V,,,,,0.00,0.00,090180,,,N*4B
$GPRMC,041711.525,V,,,,,0.00,0.00,090180,,,N*4D
$GPRMC,041711.724,V,,,,,0.00,0.00,090180,,,N*4E
$GPRMC,041711.924,V,,,,,0.00,0.00,090180,,,N*40
$GPRMC,041712.125,V,,,,,0.00,0.00,090180,,,N*4A
$GPRMC,041712.325,V,,,,,0.00,0.00,090180,,,N*48
$GPRMC,041712.525,V,,,,,0.00,0.00,090180,,,N*4E
$GPRMC,041712.724,V,,,,,0.00,0.00,090180,,,N*4D
$GPRMC,041712.924,V,,,,,0.00,0.00,090180,,,N*43
$GPRMC,041713.125,V,,,,,0.00,0.00,090180,,,N*4B
$GPRMC,041713.325,V,,,,,0.00,0.00,090180,,,N*49
$GPRMC,041713.525,V,,,,,0.00,0.00,090180,,,N*4F
$GPRMC,041713.724,V,,,,,0.00,0.00,090180,,,N*4C
$GPRMC,041713.924,V,,,,,0.00,0.00,090180,,,N*42
$GPRMC,041714.080,V,,,,,0.00,0.00,090180,,,N*42
$GPRMC,041714.119,V,,,,,0.00,0.00,090180,,,N*43
$GPRMC,041714.320,V,,,,,0.00,0.00,090180,,,N*4B
$GPRMC,041714.520,V,,,,,0.00,0.00,090180,,,N*4D
$GPRMC,041714.719,V,,,,,0.00,0.00,090180,,,N*45
$GPRMC,041714.919,V,,,,,0.00,0.00,090180,,,N*4B
$GPRMC,041715.119,V,,,,,0.00,0.00,090180,,,N*42
$GPRMC,041715.320,V,,,,,0.00,0.00,090180,,,N*4A
$GPRMC,041715.520,V,,,,,0.00,0.00,090180,,,N*4C
$GPRMC,041715.719,V,,,,,0.00,0.00,090180,,,N*44
$GPRMC,041715.919,V,,,,,0.00,0.00,090180,,,N*4A
$GPRMC,041716.119,V,,,,,0.00,0.00,090180,,,N*41
$GPRMC,041716.320,V,,,,,0.00,0.00,090180,,,N*49
$GPRMC,041716.520,V,,,,,0.00,0.00,090180,,,N*4F
$GPRMC,041716.719,V,,,,,0.00,0.00,090180,,,N*47
$GPRMC,041716.919,V,,,,,0.00,0.00,090180,,,N*49
$GPRMC,041717.119,V,,,,,0.00,0.00,090180,,,N*40
$GPRMC,041717.320,V,,,,,0.00,0.00,090180,,,N*48
$GPRMC,041717.520,V,,,,,0.00,0.00,090180,,,N*4E
$GPRMC,041717.719,V,,,,,0.00,0.00,090180,,,N*46
$GPRMC,041717.919,V,,,,,0.00,0.00,090180,,,N*48
$GPRMC,041718.119,V,,,,,0.00,0.00,090180,,,N*4F
$GPRMC,041718.320,V,,,,,0.00,0.00,090180,,,N*47
$GPRMC,041718.520,V,,,,,0.00,0.00,090180,,,N*41
$GPRMC,041718.719,V,,,,,0.00,0.00,090180,,,N*49
$GPRMC,041718.919,V,,,,,0.00,0.00,090180,,,N*47
$GPRMC,041719.119,V,,,,,0.00,0.00,090180,,,N*4E
$GPRMC,041719.320,V,,,,,0.00,0.00,090180,,,N*46
$GPRMC,041719.520,V,,,,,0.00,0.00,090180,,,N*40
$GPRMC,041719.719,V,,,,,0.00,0.00,090180,,,N*48
$GPRMC,041719.919,V,,,,,0.00,0.00,090180,,,N*46
$GPRMC,041720.080,V,,,,,0.00,0.00,090180,,,N*45
$GPRMC,041720.119,V,,,,,0.00,0.00,090180,,,N*44
$GPRMC,041720.320,V,,,,,0.00,0.00,090180,,,N*4C
$GPRMC,041720.520,V,,,,,0.00,0.00,090180,,,N*4A
$GPRMC,041720.719,V,,,,,0.00,0.00,090180,,,N*42
$GPRMC,041720.919,V,,,,,0.00,0.00,090180,,,N*4C
$GPRMC,041721.119,V,,,,,0.00,0.00,090180,,,N*45
$GPRMC,041721.320,V,,,,,0.00,0.00,090180,,,N*4D
$GPRMC,041721.520,V,,,,,0.00,0.00,090180,,,N*4B
$GPRMC,041721.719,V,,,,,0.00,0.00,090180,,,N*43
$GPRMC,041721.919,V,,,,,0.00,0.00,090180,,,N*4D
$GPRMC,041722.119,V,,,,,0.00,0.00,090180,,,N*46
$GPRMC,041722.320,V,,,,,0.00,0.00,090180,,,N*4E
$GPRMC,041722.520,V,,,,,0.00,0.00,090180,,,N*48
$GPRMC,041722.719,V,,,,,0.00,0.00,090180,,,N*40
$GPRMC,041722.919,V,,,,,0.00,0.00,090180,,,N*4E
$GPRMC,041723.119,V,,,,,0.00,0.00,090180,,,N*47
$GPRMC,041723.320,V,,,,,0.00,0.00,090180,,,N*4F
$GPRMC,041723.520,V,,,,,0.00,0.00,090180,,,N*49
$GPRMC,041723.719,V,,,,,0.00,0.00,090180,,,N*41
$GPRMC,041723.919,V,,,,,0.00,0.00,090180,,,N*4F
$GPRMC,041724.119,V,,,,,0.00,0.00,090180,,,N*40
$GPRMC,041724.320,V,,,,,0.00,0.00,090180,,,N*48
$GPRMC,041724.520,V,,,,,0.00,0.00,090180,,,N*4E
$GPRMC,041724.719,V,,,,,0.00,0.00,090180,,,N*46
$GPRMC,041724.919,V,,,,,0.00,0.00,090180,,,N*48
$GPRMC,041725.119,V,,,,,0.00,0.00,090180,,,N*41
$GPRMC,041725.320,V,,,,,0.00,0.00,090180,,,N*49
$GPRMC,041725.520,V,,,,,0.00,0.00,090180,,,N*4F
$GPRMC,041725.719,V,,,,,0.00,0.00,090180,,,N*47
$GPRMC,041725.919,V,,,,,0.00,0.00,090180,,,N*49
$GPRMC,041726.094,V,,,,,0.02,273.63,290415,,,N*4C
$GPRMC,041726.294,A,3252.3815,N,11713.0607,W,0.06,224.88,290415,,,A*71
$GPRMC,041726.600,A,3252.3815,N,11713.0607,W,0.01,74.49,290415,,,A*45
$GPRMC,041726.800,A,3252.3816,N,11713.0606,W,0.00,306.56,290415,,,A*70
$GPRMC,041727.000,A,3252.3815,N,11713.0607,W,0.04,209.63,290415,,,A*77
$GPRMC,041727.200,A,3252.3815,N,11713.0607,W,0.02,266.05,290415,,,A*7A
$GPRMC,041727.400,A,3252.3815,N,11713.0607,W,0.02,207.49,290415,,,A*73
$GPRMC,041727.600,A,3252.3814,N,11713.0607,W,0.02,267.67,290415,,,A*7A
$GPRMC,041727.800,A,3252.3814,N,11713.0608,W,0.01,224.79,290415,,,A*70
$GPRMC,041728.000,A,3252.3814,N,11713.0607,W,0.02,223.26,290415,,,A*76
$GPRMC,041728.200,A,3252.3813,N,11713.0607,W,0.01,264.94,290415,,,A*7A
$GPRMC,041728.400,A,3252.3813,N,11713.0607,W,0.02,193.97,290415,,,A*77
$GPRMC,041728.600,A,3252.3813,N,11713.0607,W,0.01,221.52,290415,,,A*75
$GPRMC,041728.800,A,3252.3813,N,11713.0607,W,0.02,269.49,290415,,,A*7E
$GPRMC,041729.000,A,3252.3813,N,11713.0606,W,0.01,241.92,290415,,,A*79
$GPRMC,041729.200,A,3252.3813,N,11713.0606,W,0.01,212.94,290415,,,A*7B
$GPRMC,041729.400,A,3252.3813,N,11713.0606,W,0.01,287.08,290415,,,A*74
$GPRMC,041729.600,A,3252.3813,N,11713.0605,W,0.02,203.90,290415,,,A*7B
$GPRMC,041729.800,A,3252.3813,N,11713.0605,W,0.03,234.20,290415,,,A*7B
$GPRMC,041730.000,A,3252.3813,N,11713.0605,W,0.02,226.59,290415,,,A*77
$GPRMC,041730.200,A,3252.3814,N,11713.0605,W,0.00,297.44,290415,,,A*76
$GPRMC,041730.400,A,3252.3814,N,11713.0605,W,0.01,314.03,290415,,,A*78
$GPRMC,041730.600,A,3252.3814,N,11713.0605,W,0.02,226.31,290415,,,A*78
$GPRMC,041730.800,A,3252.3814,N,11713.0605,W,0.01,253.59,290415,,,A*79
$GPRMC,041731.000,A,3252.3814,N,11713.0605,W,0.02,222.57,290415,,,A*7B
$GPRMC,041731.200,A,3252.3815,N,11713.0605,W,0.02,256.56,290415,,,A*7A
$GPRMC,041731.400,A,3252.3815,N,11713.0605,W,0.02,253.92,290415,,,A*71
$GPRMC,041731.600,A,3252.3815,N,11713.0604,W,0.01,293.23,290415,,,A*77
$GPRMC,041731.800,A,3252.3816,N,11713.0604,W,0.02,200.76,290415,,,A*73
$GPRMC,041732.000,A,3252.3816,N,11713.0604,W,0.01,176.66,290415,,,A*78
$GPRMC,041732.200,A,3252.3816,N,11713.0604,W,0.01,255.13,290415,,,A*7A
$GPRMC,041732.400,A,3252.3816,N,11713.0603,W,0.01,97.39,290415,,,A*4F
$GPRMC,041732.600,A,3252.3817,N,11713.0603,W,0.03,221.65,290415,,,A*78
$GPRMC,041732.800,A,3252.3817,N,11713.0603,W,0.01,36.22,290415,,,A*43
$GPRMC,041733.000,A,3252.3817,N,11713.0603,W,0.01,254.83,290415,,,A*77
$GPRMC,041733.200,A,3252.3817,N,11713.0602,W,0.01,218.76,290415,,,A*76
$GPRMC,041733.400,A,3252.3818,N,11713.0602,W,0.01,59.37,290415,,,A*4D
$GPRMC,041733.600,A,3252.3818,N,11713.0602,W,0.02,240.36,290415,,,A*77
$GPRMC,041733.800,A,3252.3818,N,11713.0602,W,0.02,255.76,290415,,,A*79
$GPRMC,041734.000,A,3252.3818,N,11713.0602,W,0.00,198.26,290415,,,A*73
$GPRMC,041734.200,A,3252.3818,N,11713.0601,W,0.01,278.27,290415,,,A*7F
$GPRMC,041734.400,A,3252.3818,N,11713.0601,W,0.01,210.12,290415,,,A*71
$GPRMC,041734.600,A,3252.3818,N,11713.0601,W,0.02,290.78,290415,,,A*74
$GPRMC,041734.800,A,3252.3819,N,11713.0601,W,0.02,176.77,290415,,,A*7F
$GPRMC,041735.000,A,3252.3819,N,11713.0601,W,0.01,260.88,290415,,,A*71
$GPRMC,041735.200,A,3252.3819,N,11713.0601,W,0.01,269.05,290415,,,A*7F
$GPRMC,041735.400,A,3252.3819,N,11713.0601,W,0.01,200.29,290415,,,A*78
$GPRMC,041735.600,A,3252.3819,N,11713.0600,W,0.02,299.09,290415,,,A*7A
$GPRMC,041735.800,A,3252.3819,N,11713.0600,W,0.00,75.94,290415,,,A*42
$GPRMC,041736.000,A,3252.3820,N,11713.0600,W,0.02,237.90,290415,,,A*71
$GPRMC,041736.200,A,3252.3820,N,11713.0600,W,0.00,275.93,290415,,,A*74
$GPRMC,041736.400,A,3252.3820,N,11713.0600,W,0.01,85.31,290415,,,A*46
$GPRMC,041736.600,A,3252.3820,N,11713.0600,W,0.01,275.52,290415,,,A*7C
$GPRMC,041736.800,A,3252.3820,N,11713.0599,W,0.01,271.73,290415,,,A*76
$GPRMC,041737.000,A,3252.3820,N,11713.0599,W,0.01,46.67,290415,,,A*4C
$GPRMC,041737.200,A,3252.3820,N,11713.0599,W,0.01,229.08,290415,,,A*7C
$GPRMC,041737.400,A,3252.3821,N,11713.0599,W,0.01,213.38,290415,,,A*71
$GPRMC,041737.600,A,3252.3821,N,11713.0599,W,0.01,302.46,290415,,,A*7B
$GPRMC,041737.800,A,3252.3821,N,11713.0598,W,0.01,66.12,290415,,,A*44
$GPRMC,041738.000,A,3252.3821,N,11713.0598,W,0.01,123.27,290415,,,A*75
$GPRMC,041738.200,A,3252.3821,N,11713.0598,W,0.02,189.03,290415,,,A*72
$GPRMC,041738.400,A,3252.3821,N,11713.0598,W,0.02,280.67,290415,,,A*7C
$GPRMC,041738.600,A,3252.3821,N,11713.0598,W,0.01,33.13,290415,,,A*44
$GPRMC,041738.800,A,3252.3821,N,11713.0598,W,0.01,69.77,290415,,,A*47
$GPRMC,041739.000,A,3252.3822,N,11713.0597,W,0.01,53.59,290415,,,A*47
$GPRMC,041739.200,A,3252.3822,N,11713.0597,W,0.01,275.78,290415,,,A*70
$GPRMC,041739.400,A,3252.3822,N,11713.0597,W,0.00,51.74,290415,,,A*4F
$GPRMC,041739.600,A,3252.3822,N,11713.0597,W,0.01,204.79,290415,,,A*73
$GPRMC,041739.800,A,3252.3822,N,11713.0597,W,0.00,110.17,290415,,,A*72
$GPRMC,041740.000,A,3252.3822,N,11713.0597,W,0.00,270.32,290415,,,A*76
$GPRMC,041740.200,A,3252.3823,N,11713.0597,W,0.02,253.96,290415,,,A*78
$GPRMC,041740.400,A,3252.3823,N,11713.0596,W,0.00,350.74,290415,,,A*73
$GPRMC,041740.600,A,3252.3823,N,11713.0596,W,0.01,54.10,290415,,,A*45
$GPRMC,041740.800,A,3252.3823,N,11713.0596,W,0.01,166.37,290415,,,A*7E
$GPRMC,041741.000,A,3252.3823,N,11713.0596,W,0.01,252.80,290415,,,A*7F
$GPRMC,041741.200,A,3252.3823,N,11713.0596,W,0.02,245.01,290415,,,A*71
$GPRMC,041741.400,A,3252.3823,N,11713.0596,W,0.00,0.00,290415,,,A*77
$GPRMC,041741.600,A,3252.3824,N,11713.0596,W,0.00,321.88,290415,,,A*72
$GPRMC,041741.800,A,3252.3824,N,11713.0595,W,0.01,274.90,290415,,,A*76
$GPRMC,041742.000,A,3252.3824,N,11713.0595,W,0.01,215.69,290415,,,A*7C
$GPRMC,041742.200,A,3252.3824,N,11713.0595,W,0.02,252.60,290415,,,A*77
$GPRMC,041742.400,A,3252.3824,N,11713.0595,W,0.01,191.84,290415,,,A*74
$GPRMC,041742.600,A,3252.3825,N,11713.0595,W,0.02,64.02,290415,,,A*41
$GPRMC,041742.800,A,3252.3825,N,11713.0594,W,0.00,85.53,290415,,,A*47
$GPRMC,041743.000,A,3252.3825,N,11713.0594,W,0.02,229.64,290415,,,A*7C
$GPRMC,041743.200,A,3252.3825,N,11713.0594,W,0.01,252.80,290415,,,A*7B
$GPRMC,041743.400,A,3252.3825,N,11713.0594,W,0.00,0.00,290415,,,A*71
$GPRMC,041743.600,A,3252.3826,N,11713.0594,W,0.00,306.46,290415,,,A*77
$GPRMC,041743.800,A,3252.3826,N,11713.0594,W,0.01,247.35,290415,,,A*78
$GPRMC,041744.000,A,3252.3826,N,11713.0593,W,0.02,227.35,290415,,,A*75
$GPRMC,041744.200,A,3252.3826,N,11713.0593,W,0.01,232.07,290415,,,A*71
$GPRMC,041744.400,A,3252.3826,N,11713.0593,W,0.02,212.75,290415,,,A*73
$GPRMC,041744.600,A,3252.3826,N,11713.0593,W,0.01,11.94,290415,,,A*4C
$GPRMC,041744.800,A,3252.3827,N,11713.0593,W,0.01,201.22,290415,,,A*7D
$GPRMC,041745.000,A,3252.3827,N,11713.0593,W,0.00,14.38,290415,,,A*48
$GPRMC,041745.200,A,3252.3827,N,11713.0592,W,0.01,12.86,290415,,,A*49
$GPRMC,041745.400,A,3252.3827,N,11713.0592,W,0.01,152.89,290415,,,A*75
$GPRMC,041745.600,A,3252.3827,N,11713.0592,W,0.01,339.24,290415,,,A*7F
$GPRMC,041745.800,A,3252.3828,N,11713.0592,W,0.01,214.82,290415,,,A*7C
$GPRMC,041746.000,A,3252.3828,N,11713.0592,W,0.01,69.86,290415,,,A*4B
$GPRMC,041746.200,A,3252.3828,N,11713.0592,W,0.02,219.61,290415,,,A*76
$GPRMC,041746.400,A,3252.3828,N,11713.0591,W,0.01,225.21,290415,,,A*7B
$GPRMC,041746.600,A,3252.3828,N,11713.0591,W,0.01,232.86,290415,,,A*72
$GPRMC,041746.800,A,3252.3828,N,11713.0591,W,0.02,233.49,290415,,,A*7D
$GPRMC,041747.000,A,3252.3828,N,11713.0591,W,0.01,272.96,290415,,,A*70
$GPRMC,041747.200,A,3252.3829,N,11713.0591,W,0.01,226.60,290415,,,A*7B
$GPRMC,041747.400,A,3252.3829,N,11713.0591,W,0.01,249.26,290415,,,A*76
$GPRMC,041747.600,A,3252.3829,N,11713.0591,W,0.01,219.17,290415,,,A*73
$GPRMC,041747.800,A,3252.3829,N,11713.0590,W,0.01,122.05,290415,,,A*74
$GPRMC,041748.000,A,3252.3829,N,11713.0590,W,0.02,59.25,290415,,,A*4F
$GPRMC,041748.200,A,3252.3829,N,11713.0590,W,0.01,137.61,290415,,,A*77
$GPRMC,041748.400,A,3252.3829,N,11713.0590,W,0.01,355.12,290415,,,A*73
$GPRMC,041748.600,A,3252.3829,N,11713.0590,W,0.01,219.33,290415,,,A*7B
$GPRMC,041748.800,A,3252.3829,N,11713.0590,W,0.00,200.02,290415,,,A*7E
$GPRMC,041749.000,A,3252.3830,N,11713.0590,W,0.00,166.49,290415,,,A*73
$GPRMC,041749.200,A,3252.3830,N,11713.0590,W,0.01,9.21,290415,,,A*76
$GPRMC,041749.400,A,3252.3830,N,11713.0590,W,0.01,175.57,290415,,,A*7B
$GPRMC,041749.600,A,3252.3830,N,11713.0590,W,0.01,245.60,290415,,,A*7D
$GPRMC,041749.800,A,3252.3830,N,11713.0590,W,0.01,187.23,290415,,,A*79
$GPRMC,041750.000,A,3252.3830,N,11713.0590,W,0.00,305.57,290415,,,A*73
$GPRMC,041750.200,A,3252.3831,N,11713.0590,W,0.01,51.83,290415,,,A*4A
$GPRMC,041750.400,A,3252.3831,N,11713.0589,W,0.00,40.76,290415,,,A*4F
$GPRMC,041750.600,A,3252.3831,N,11713.0589,W,0.01,263.70,290415,,,A*79
$GPRMC,041750.800,A,3252.3831,N,11713.0589,W,0.01,320.15,290415,,,A*72
$GPRMC,041751.000,A,3252.3831,N,11713.0589,W,0.02,208.16,290415,,,A*70
$GPRMC,041751.200,A,3252.3831,N,11713.0589,W,0.03,213.32,290415,,,A*7F
$GPRMC,041751.400,A,3252.3831,N,11713.0589,W,0.01,236.06,290415,,,A*7B
$GPRMC,041751.600,A,3252.3831,N,11713.0589,W,0.02,229.25,290415,,,A*75
$GPRMC,041751.800,A,3252.3831,N,11713.0589,W,0.02,335.05,290415,,,A*75
$GPRMC,041752.000,A,3252.3831,N,11713.0589,W,0.01,222.47,290415,,,A*7C
$GPRMC,041752.200,A,3252.3831,N,11713.0589,W,0.00,136.30,290415,,,A*79
$GPRMC,041752.400,A,3252.3831,N,11713.0589,W,0.01,238.89,290415,,,A*71
$GPRMC,041752.600,A,3252.3831,N,11713.0589,W,0.01,215.78,290415,,,A*72
$GPRMC,041752.800,A,3252.3832,N,11713.0589,W,0.01,354.95,290415,,,A*78
$GPRMC,041753.000,A,3252.3832,N,11713.0589,W,0.01,63.85,290415,,,A*47
$GPRMC,041753.200,A,3252.3832,N,11713.0589,W,0.01,220.29,290415,,,A*76
$GPRMC,041753.400,A,3252.3832,N,11713.0589,W,0.01,277.86,290415,,,A*77
$GPRMC,041753.600,A,3252.3832,N,11713.0588,W,0.02,240.51,290415,,,A*79
$GPRMC,041753.800,A,3252.3832,N,11713.0588,W,0.01,221.90,290415,,,A*7E
$GPRMC,041754.000,A,3252.3832,N,11713.0588,W,0.01,237.74,290415,,,A*7C
$GPRMC,041754.200,A,3252.3832,N,11713.0588,W,0.00,65.73,290415,,,A*4D
$GPRMC,041754.400,A,3252.3832,N,11713.0588,W,0.01,134.51,290415,,,A*7F
$GPRMC,041754.600,A,3252.3832,N,11713.0588,W,0.01,331.18,290415,,,A*77
$GPRMC,041754.800,A,3252.3832,N,11713.0588,W,0.02,224.73,290415,,,A*72
$GPRMC,041755.000,A,3252.3832,N,11713.0588,W,0.00,0.00,290415,,,A*79
$GPRMC,041755.200,A,3252.3832,N,11713.0588,W,0.01,314.12,290415,,,A*7F
$GPRMC,041755.400,A,3252.3832,N,11713.0588,W,0.01,56.89,290415,,,A*4E
$GPRMC,041755.600,A,3252.3832,N,11713.0588,W,0.01,174.85,290415,,,A*71
$GPRMC,041755.800,A,3252.3832,N,11713.0588,W,0.00,84.86,290415,,,A*43
$GPRMC,041756.000,A,3252.3832,N,11713.0588,W,0.02,254.42,290415,,,A*7D
$GPRMC,041756.200,A,3252.3832,N,11713.0588,W,0.02,43.97,290415,,,A*43
$GPRMC,041756.400,A,3252.3832,N,11713.0588,W,0.01,356.38,290415,,,A*74
$GPRMC,041756.600,A,3252.3832,N,11713.0588,W,0.01,279.77,290415,,,A*71
$GPRMC,041756.800,A,3252.3833,N,11713.0587,W,0.01,257.35,290415,,,A*7B
$GPRMC,041757.000,A,3252.3833,N,11713.0587,W,0.01,181.40,290415,,,A*78
$GPRMC,041757.200,A,3252.3833,N,11713.0587,W,0.02,233.08,290415,,,A*7F
$GPRMC,041757.400,A,3252.3833,N,11713.0587,W,0.01,291.80,290415,,,A*72
$GPRMC,041757.600,A,3252.3833,N,11713.0587,W,0.01,277.09,290415,,,A*79
$GPRMC,041757.800,A,3252.3833,N,11713.0587,W,0.01,66.84,290415,,,A*40
$GPRMC,041758.000,A,3252.3833,N,11713.0587,W,0.01,311.44,290415,,,A*78
$GPRMC,041758.200,A,3252.3833,N,11713.0587,W,0.01,301.78,290415,,,A*74
$GPRMC,041758.400,A,3252.3833,N,11713.0587,W,0.00,207.80,290415,,,A*73
$GPRMC,041758.600,A,3252.3833,N,11713.0587,W,0.03,212.83,290415,,,A*75
$GPRMC,041758.800,A,3252.3833,N,11713.0587,W,0.01,273.15,290415,,,A*71
$GPRMC,041759.000,A,3252.3833,N,11713.0587,W,0.01,28.61,290415,,,A*47
$GPRMC,041759.200,A,3252.3833,N,11713.0588,W,0.01,19.62,290415,,,A*4B
$GPRMC,041759.400,A,3252.3833,N,11713.0588,W,0.01,251.09,290415,,,A*7E
$GPRMC,041759.600,A,3252.3833,N,11713.0588,W,0.00,207.14,290415,,,A*72
$GPRMC,041759.800,A,3252.3833,N,11713.0588,W,0.01,22.27,290415,,,A*48
$GPRMC,041800.000,A,3252.3833,N,11713.0588,W,0.01,342.46,290415,,,A*71
$GPRMC,041800.200,A,3252.3833,N,11713.0588,W,0.01,131.47,290415,,,A*74
$GPRMC,041800.400,A,3252.3833,N,11713.0588,W,0.00,296.63,290415,,,A*7B
$GPRMC,041800.600,A,3252.3833,N,11713.0588,W,0.03,252.83,290415,,,A*7C
$GPRMC,041800.800,A,3252.3833,N,11713.0588,W,0.01,170.54,290415,,,A*79
$GPRMC,041801.000,A,3252.3833,N,11713.0588,W,0.01,308.54,290415,,,A*7D
$GPRMC,041801.200,A,3252.3833,N,11713.0588,W,0.01,264.28,290415,,,A*7F
$GPRMC,041801.400,A,3252.3833,N,11713.0588,W,0.01,135.98,290415,,,A*75
$GPRMC,041801.600,A,3252.3833,N,11713.0588,W,0.02,243.88,290415,,,A*77
$GPRMC,041801.800,A,3252.3833,N,11713.0588,W,0.01,230.03,290415,,,A*7D
$GPRMC,041802.000,A,3252.3833,N,11713.0588,W,0.01,268.80,290415,,,A*70
$GPRMC,041802.200,A,3252.3833,N,11713.0588,W,0.02,221.06,290415,,,A*72
$GPRMC,041802.400,A,3252.3833,N,11713.0588,W,0.01,326.96,290415,,,A*78
$GPRMC,041802.600,A,3252.3833,N,11713.0588,W,0.01,260.55,290415,,,A*76
$GPRMC,041802.800,A,3252.3833,N,11713.0588,W,0.01,191.05,290415,,,A*70
$GPRMC,041803.000,A,3252.3833,N,11713.0588,W,0.01,220.09,290415,,,A*7C
$GPRMC,041803.200,A,3252.3833,N,11713.0588,W,0.01,295.23,290415,,,A*78
$GPRMC,041803.400,A,3252.3833,N,11713.0588,W,0.01,68.25,290415,,,A*48
$GPRMC,041803.600,A,3252.3833,N,11713.0588,W,0.01,211.60,290415,,,A*77
$GPRMC,041803.800,A,3252.3833,N,11713.0588,W,0.01,348.21,290415,,,A*71
$GPRMC,041804.000,A,3252.3833,N,11713.0588,W,0.01,235.05,290415,,,A*73
$GPRMC,041804.200,A,3252.3833,N,11713.0588,W,0.01,276.93,290415,,,A*79
$GPRMC,041804.400,A,3252.3833,N,11713.0588,W,0.00,30.69,290415,,,A*4B
$GPRMC,041804.600,A,3252.3833,N,11713.0588,W,0.02,230.60,290415,,,A*70
$GPRMC,041804.800,A,3252.3833,N,11713.0588,W,0.01,67.39,290415,,,A*41
$GPRMC,041805.000,A,3252.3833,N,11713.0588,W,0.03,237.05,290415,,,A*72
$GPRMC,041805.200,A,3252.3833,N,11713.0588,W,0.03,29.11,290415,,,A*48
$GPRMC,041805.400,A,3252.3833,N,11713.0588,W,0.01,194.99,290415,,,A*7B
$GPRMC,041805.600,A,3252.3833,N,11713.0588,W,0.00,132.54,290415,,,A*75
$GPRMC,041805.800,A,3252.3833,N,11713.0588,W,0.01,270.62,290415,,,A*7A
$GPRMC,041806.000,A,3252.3833,N,11713.0588,W,0.02,240.79,290415,,,A*7B
$GPRMC,041806.200,A,3252.3833,N,11713.0588,W,0.01,243.54,290415,,,A*76
$GPRMC,041806.400,A,3252.3833,N,11713.0588,W,0.02,252.74,290415,,,A*71
$GPRMC,041806.600,A,3252.3833,N,11713.0588,W,0.01,208.24,290415,,,A*7A
$GPRMC,041806.800,A,3252.3833,N,11713.0588,W,0.01,214.12,290415,,,A*7C
$GPRMC,041807.000,A,3252.3833,N,11713.0588,W,0.01,58.79,290415,,,A*42
$GPRMC,041807.200,A,3252.3833,N,11713.0588,W,0.02,235.98,290415,,,A*75
$GPRMC,041807.400,A,3252.3833,N,11713.0588,W,0.02,223.82,290415,,,A*7F
$GPRMC,041807.600,A,3252.3833,N,11713.0588,W,0.01,254.64,290415,,,A*76
$GPRMC,041807.800,A,3252.3833,N,11713.0588,W,0.02,221.88,290415,,,A*7B
$GPRMC,041808.000,A,3252.3833,N,11713.0588,W,0.02,229.56,290415,,,A*77
$GPRMC,041808.200,A,3252.3833,N,11713.0588,W,0.01,230.23,290415,,,A*7C
$GPRMC,041808.400,A,3252.3833,N,11713.0588,W,0.01,219.47,290415,,,A*73
$GPRMC,041808.600,A,3252.3833,N,11713.0588,W,0.01,251.11,290415,,,A*7E
$GPRMC,041808.800,A,3252.3833,N,11713.0588,W,0.02,239.21,290415,,,A*7E
$GPRMC,041809.000,A,3252.3833,N,11713.0588,W,0.01,328.80,290415,,,A*7E
$GPRMC,041809.200,A,3252.3833,N,11713.0588,W,0.03,236.47,290415,,,A*7B
$GPRMC,041809.400,A,3252.3833,N,11713.0588,W,0.01,142.54,290415,,,A*7D
$GPRMC,041809.600,A,3252.3833,N,11713.0588,W,0.02,194.79,290415,,,A*78
$GPRMC,041809.800,A,3252.3833,N,11713.0588,W,0.03,235.18,290415,,,A*78
$GPRMC,041810.000,A,3252.3833,N,11713.0588,W,0.01,312.17,290415,,,A*71
$GPRMC,041810.200,A,3252.3833,N,11713.0588,W,0.01,218.44,290415,,,A*7E
$GPRMC,041810.400,A,3252.3833,N,11713.0588,W,0.01,32.80,290415,,,A*4A
$GPRMC,041810.600,A,3252.3833,N,11713.0588,W,0.02,217.87,290415,,,A*79
$GPRMC,041810.800,A,3252.3833,N,11713.0588,W,0.03,222.91,290415,,,A*77
$GPRMC,041811.000,A,3252.3833,N,11713.0588,W,0.00,204.84,290415,,,A*7D
$GPRMC,041811.200,A,3252.3833,N,11713.0588,W,0.01,229.32,290415,,,A*7C
$GPRMC,041811.400,A,3252.3833,N,11713.0588,W,0.01,291.08,290415,,,A*70
$GPRMC,041811.600,A,3252.3833,N,11713.0588,W,0.00,8.43,290415,,,A*7E
$GPRMC,041811.800,A,3252.3833,N,11713.0588,W,0.01,211.43,290415,,,A*7B
$GPRMC,041812.000,A,3252.3833,N,11713.0588,W,0.02,260.67,290415,,,A*73
$GPRMC,041812.200,A,3252.3833,N,11713.0588,W,0.01,253.34,290415,,,A*74
$GPRMC,041812.400,A,3252.3833,N,11713.0588,W,0.00,60.44,290415,,,A*46
$GPRMC,041812.600,A,3252.3833,N,11713.0588,W,0.01,266.58,290415,,,A*7C
$GPRMC,041812.800,A,3252.3833,N,11713.0588,W,0.02,238.12,290415,,,A*74
$GPRMC,041813.000,A,3252.3833,N,11713.0588,W,0.01,12.10,290415,,,A*46
$GPRMC,041813.200,A,3252.3833,N,11713.0588,W,0.01,294.44,290415,,,A*79
$GPRMC,041813.400,A,3252.3833,N,11713.0588,W,0.01,179.15,290415,,,A*7B
$GPRMC,041813.600,A,3252.3833,N,11713.0588,W,0.01,359.05,290415,,,A*78
$GPRMC,041813.800,A,3252.3833,N,11713.0588,W,0.01,67.61,290415,,,A*4A
$GPRMC,041814.000,A,3252.3833,N,11713.0588,W,0.01,11.58,290415,,,A*4E
$GPRMC,041814.200,A,3252.3833,N,11713.0588,W,0.02,252.75,290415,,,A*75
$GPRMC,041814.400,A,3252.3833,N,11713.0588,W,0.01,238.56,290415,,,A*7D
$GPRMC,041814.600,A,3252.3833,N,11713.0588,W,0.01,243.19,290415,,,A*78
$GPRMC,041814.800,A,3252.3833,N,11713.0588,W,0.00,0.00,290415,,,A*7A
$GPRMC,041815.000,A,3252.3833,N,11713.0588,W,0.01,218.85,290415,,,A*74
$GPRMC,041815.200,A,3252.3833,N,11713.0588,W,0.00,287.59,290415,,,A*70
$GPRMC,041815.400,A,3252.3833,N,11713.0588,W,0.01,101.45,290415,,,A*77
$GPRMC,041815.600,A,3252.3833,N,11713.0588,W,0.01,232.46,290415,,,A*75
$GPRMC,041815.800,A,3252.3833,N,11713.0588,W,0.01,198.47,290415,,,A*79
$GPRMC,041816.000,A,3252.3833,N,11713.0588,W,0.01,224.53,290415,,,A*73
$GPRMC,041816.200,A,3252.3833,N,11713.0588,W,0.01,132.48,290415,,,A*7F
$GPRMC,041816.400,A,3252.3833,N,11713.0588,W,0.01,295.82,290415,,,A*71
$GPRMC,041816.600,A,3252.3833,N,11713.0588,W,0.01,2.67,290415,,,A*74
$GPRMC,041816.800,A,3252.3833,N,11713.0588,W,0.01,57.63,290415,,,A*4E
$GPRMC,041817.000,A,3252.3833,N,11713.0588,W,0.01,336.63,290415,,,A*73
$GPRMC,041817.200,A,3252.3833,N,11713.0588,W,0.01,245.65,290415,,,A*72
$GPRMC,041817.400,A,3252.3833,N,11713.0588,W,0.01,27.93,290415,,,A*4B
$GPRMC,041817.600,A,3252.3833,N,11713.0588,W,0.01,227.34,290415,,,A*76
$GPRMC,041817.800,A,3252.3833,N,11713.0588,W,0.02,189.28,290415,,,A*71
$GPRMC,041818.000,A,3252.3833,N,11713.0588,W,0.00,164.48,290415,,,A*71
$GPRMC,041818.200,A,3252.3833,N,11713.0588,W,0.01,283.28,290415,,,A*7E
$GPRMC,041818.400,A,3252.3833,N,11713.0588,W,0.01,280.54,290415,,,A*70
$GPRMC,041818.600,A,3252.3833,N,11713.0588,W,0.01,216.74,290415,,,A*7F
$GPRMC,041818.800,A,3252.3833,N,11713.0588,W,0.01,358.16,290415,,,A*7E
$GPRMC,041819.000,A,3252.3833,N,11713.0588,W,0.00,72.88,290415,,,A*4A
$GPRMC,041819.200,A,3252.3833,N,11713.0588,W,0.00,343.96,290415,,,A*76
$GPRMC,041819.400,A,3252.3833,N,11713.0588,W,0.02,197.90,290415,,,A*7F
$GPRMC,041819.600,A,3252.3833,N,11713.0588,W,0.01,13.87,290415,,,A*45
$GPRMC,041819.800,A,3252.3833,N,11713.0588,W,0.01,8.64,290415,,,A*7C
$GPRMC,041820.000,A,3252.3833,N,11713.0588,W,0.01,282.60,290415,,,A*7A
$GPRMC,041820.200,A,3252.3833,N,11713.0588,W,0.00,126.52,290415,,,A*75
$GPRMC,041820.400,A,3252.3833,N,11713.0588,W,0.01,200.33,290415,,,A*72
$GPRMC,041820.600,A,3252.3833,N,11713.0588,W,0.01,292.84,290415,,,A*77
$GPRMC,041820.800,A,3252.3833,N,11713.0588,W,0.00,157.51,290415,,,A*7A
$GPRMC,041821.000,A,3252.3833,N,11713.0588,W,0.01,250.91,290415,,,A*7A
$GPRMC,041821.200,A,3252.3833,N,11713.0588,W,0.01,217.61,290415,,,A*74
$GPRMC,041821.400,A,3252.3833,N,11713.0588,W,0.02,51.23,290415,,,A*47
$GPRMC,041821.600,A,3252.3833,N,11713.0588,W,0.01,346.78,290415,,,A*7D
$GPRMC,041821.800,A,3252.3833,N,11713.0588,W,0.01,56.90,290415,,,A*47
$GPRMC,041822.000,A,3252.3833,N,11713.0588,W,0.01,177.84,290415,,,A*7B
$GPRMC,041822.200,A,3252.3833,N,11713.0588,W,0.00,195.18,290415,,,A*71
$GPRMC,041822.400,A,3252.3833,N,11713.0588,W,0.00,228.30,290415,,,A*78
$GPRMC,041822.600,A,3252.3833,N,11713.0588,W,0.01,323.47,290415,,,A*71
$GPRMC,041822.800,A,3252.3833,N,11713.0588,W,0.01,160.38,290415,,,A*72
$GPRMC,041823.000,A,3252.3833,N,11713.0588,W,0.00,56.53,290415,,,A*43
$GPRMC,041823.200,A,3252.3833,N,11713.0588,W,0.02,211.69,290415,,,A*7B
$GPRMC,041823.400,A,3252.3833,N,11713.0588,W,0.01,276.32,290415,,,A*71
$GPRMC,041823.600,A,3252.3833,N,11713.0588,W,0.00,128.64,290415,,,A*79
$GPRMC,041823.800,A,3252.3833,N,11713.0588,W,0.01,86.92,290415,,,A*4A
$GPRMC,041824.000,A,3252.3833,N,11713.0588,W,0.00,248.47,290415,,,A*7C
$GPRMC,041824.200,A,3252.3833,N,11713.0588,W,0.01,197.50,290415,,,A*78
$GPRMC,041824.400,A,3252.3833,N,11713.0588,W,0.01,257.02,290415,,,A*76
$GPRMC,041824.600,A,3252.3833,N,11713.0588,W,0.01,212.74,290415,,,A*74
$GPRMC,041824.800,A,3252.3833,N,11713.0588,W,0.02,244.41,290415,,,A*7C
$GPRMC,041825.000,A,3252.3833,N,11713.0588,W,0.00,224.30,290415,,,A*77
$GPRMC,041825.200,A,3252.3833,N,11713.0588,W,0.02,226.18,290415,,,A*7F
$GPRMC,041825.400,A,3252.3833,N,11713.0588,W,0.01,252.68,290415,,,A*7E
$GPRMC,041825.600,A,3252.3833,N,11713.0588,W,0.01,224.96,290415,,,A*7C
$GPRMC,041825.800,A,3252.3833,N,11713.0588,W,0.02,185.23,290415,,,A*77
$GPRMC,041826.000,A,3252.3833,N,11713.0588,W,0.01,182.09,290415,,,A*70
$GPRMC,041826.200,A,3252.3833,N,11713.0588,W,0.01,230.85,290415,,,A*7C
$GPRMC,041826.400,A,3252.3833,N,11713.0588,W,0.02,262.56,290415,,,A*70
$GPRMC,041826.600,A,3252.3833,N,11713.0588,W,0.02,245.87,290415,,,A*7B
$GPRMC,041826.800,A,3252.3833,N,11713.0588,W,0.01,127.58,290415,,,A*73
$GPRMC,041827.000,A,3252.3833,N,11713.0588,W,0.01,235.41,290415,,,A*72
$GPRMC,041827.200,A,3252.3833,N,11713.0588,W,0.02,219.07,290415,,,A*7F
$GPRMC,041827.400,A,3252.3833,N,11713.0588,W,0.00,343.30,290415,,,A*71
$GPRMC,041827.600,A,3252.3833,N,11713.0588,W,0.00,135.04,290415,,,A*77
$GPRMC,041827.800,A,3252.3833,N,11713.0588,W,0.02,224.12,290415,,,A*7F
$GPRMC,041828.000,A,3252.3833,N,11713.0588,W,0.01,207.23,290415,,,A*78
$GPRMC,041828.200,A,3252.3833,N,11713.0588,W,0.01,253.41,290415,,,A*7F
$GPRMC,041828.400,A,3252.3833,N,11713.0588,W,0.00,205.83,290415,,,A*75
$GPRMC,041828.600,A,3252.3833,N,11713.0588,W,0.01,279.71,290415,,,A*70
$GPRMC,041828.800,A,3252.3833,N,11713.0588,W,0.01,263.91,290415,,,A*7B
$GPRMC,041829.000,A,3252.3833,N,11713.0588,W,0.01,221.53,290415,,,A*7A
$GPRMC,041829.200,A,3252.3833,N,11713.0588,W,0.01,191.87,290415,,,A*79
$GPRMC,041829.400,A,3252.3833,N,11713.0588,W,0.00,201.52,290415,,,A*7C
$GPRMC,041829.600,A,3252.3833,N,11713.0588,W,0.02,214.13,290415,,,A*7D
$GPRMC,041829.800,A,3252.3833,N,11713.0588,W,0.01,44.65,290415,,,A*46
$GPRMC,041830.000,A,3252.3833,N,11713.0588,W,0.00,0.00,290415,,,A*74
$GPRMC,041830.200,A,3252.3833,N,11713.0588,W,0.01,196.80,290415,,,A*71
$GPRMC,041830.400,A,3252.3833,N,11713.0588,W,0.01,256.32,290415,,,A*71
$GPRMC,041830.600,A,3252.3833,N,11713.0588,W,0.01,282.55,290415,,,A*7B
$GPRMC,041830.800,A,3252.3833,N,11713.0588,W,0.01,221.46,290415,,,A*7E
$GPRMC,041831.000,A,3252.3833,N,11713.0588,W,0.00,21.22,290415,,,A*46
$GPRMC,041831.200,A,3252.3833,N,11713.0588,W,0.01,201.05,290415,,,A*70
$GPRMC,041831.400,A,3252.3833,N,11713.0588,W,0.01,338.09,290415,,,A*71
$GPRMC,041831.600,A,3252.3833,N,11713.0588,W,0.01,175.69,290415,,,A*7E
$GPRMC,041831.800,A,3252.3833,N,11713.0588,W,0.00,85.26,290415,,,A*44
$GPRMC,041832.000,A,3252.3833,N,11713.0588,W,0.01,206.90,290415,,,A*7A
$GPRMC,041832.200,A,3252.3833,N,11713.0588,W,0.01,150.55,290415,,,A*71
$GPRMC,041832.400,A,3252.3833,N,11713.0588,W,0.01,231.39,290415,,,A*79
$GPRMC,041832.600,A,3252.3833,N,11713.0588,W,0.01,349.73,290415,,,A*7B
$GPRMC,041832.800,A,3252.3833,N,11713.0588,W,0.01,246.04,290415,,,A*7B
$GPRMC,041833.000,A,3252.3833,N,11713.0588,W,0.00,111.08,290415,,,A*7E
$GPRMC,041833.200,A,3252.3833,N,11713.0588,W,0.01,329.21,290415,,,A*7F
$GPRMC,041833.400,A,3252.3833,N,11713.0588,W,0.01,87.98,290415,,,A*4C
$GPRMC,041833.600,A,3252.3833,N,11713.0588,W,0.00,239.39,290415,,,A*73
$GPRMC,041833.800,A,3252.3833,N,11713.0588,W,0.01,207.53,290415,,,A*7D
$GPRMC,041834.000,A,3252.3833,N,11713.0588,W,0.01,277.42,290415,,,A*75
$GPRMC,041834.200,A,3252.3833,N,11713.0588,W,0.02,219.87,290415,,,A*75
$GPRMC,041834.400,A,3252.3833,N,11713.0588,W,0.00,88.30,290415,,,A*47
$GPRMC,041834.600,A,3252.3833,N,11713.0588,W,0.02,24.30,290415,,,A*41
$GPRMC,041834.800,A,3252.3833,N,11713.0588,W,0.01,246.64,290415,,,A*7B
$GPRMC,041835.000,A,3252.3833,N,11713.0588,W,0.01,129.10,290415,,,A*7B
$GPRMC,041835.200,A,3252.3833,N,11713.0588,W,0.02,268.14,290415,,,A*78
$GPRMC,041835.400,A,3252.3833,N,11713.0588,W,0.01,55.23,290415,,,A*45
$GPRMC,041835.600,A,3252.3833,N,11713.0588,W,0.01,216.83,290415,,,A*78
$GPRMC,041835.800,A,3252.3833,N,11713.0588,W,0.01,317.79,290415,,,A*73
$GPRMC,041836.000,A,3252.3833,N,11713.0588,W,0.01,185.29,290415,,,A*74
$GPRMC,041836.200,A,3252.3833,N,11713.0588,W,0.01,25.72,290415,,,A*43
$GPRMC,041836.400,A,3252.3833,N,11713.0588,W,0.00,7.06,290415,,,A*77
$GPRMC,041836.600,A,3252.3833,N,11713.0588,W,0.01,254.05,290415,,,A*73
$GPRMC,041836.800,A,3252.3833,N,11713.0588,W,0.02,338.53,290415,,,A*76
$GPRMC,041837.000,A,3252.3833,N,11713.0588,W,0.01,96.58,290415,,,A*40
$GPRMC,041837.200,A,3252.3833,N,11713.0588,W,0.00,308.20,290415,,,A*78
$GPRMC,041837.400,A,3252.3833,N,11713.0588,W,0.01,136.56,290415,,,A*71
$GPRMC,041837.600,A,3252.3833,N,11713.0588,W,0.01,14.83,290415,,,A*4A
$GPRMC,041837.800,A,3252.3833,N,11713.0588,W,0.02,188.40,290415,,,A*7C
$GPRMC,041838.000,A,3252.3833,N,11713.0588,W,0.02,213.97,290415,,,A*70
$GPRMC,041838.200,A,3252.3833,N,11713.0588,W,0.01,246.80,290415,,,A*77
$GPRMC,041838.400,A,3252.3833,N,11713.0588,W,0.03,228.44,290415,,,A*73
$GPRMC,041838.600,A,3252.3833,N,11713.0588,W,0.01,8.87,290415,,,A*7C
$GPRMC,041838.800,A,3252.3833,N,11713.0588,W,0.02,195.14,290415,,,A*7E
$GPRMC,041839.000,A,3252.3833,N,11713.0588,W,0.02,238.71,290415,,,A*70
$GPRMC,041839.200,A,3252.3833,N,11713.0588,W,0.01,280.99,290415,,,A*74
$GPRMC,041839.400,A,3252.3833,N,11713.0588,W,0.01,5.06,290415,,,A*7B
$GPRMC,041839.600,A,3252.3833,N,11713.0588,W,0.01,156.22,290415,,,A*78
$GPRMC,041839.800,A,3252.3833,N,11713.0588,W,0.01,242.67,290415,,,A*71
$GPRMC,041840.000,A,3252.3833,N,11713.0588,W,0.01,201.95,290415,,,A*7D
$GPRMC,041840.200,A,3252.3832,N,11713.0588,W,0.00,350.59,290415,,,A*7A
$GPRMC,041840.400,A,3252.3832,N,11713.0588,W,0.01,203.59,290415,,,A*7A
$GPRMC,041840.600,A,3252.3832,N,11713.0588,W,0.00,188.51,290415,,,A*71
$GPRMC,041840.800,A,3252.3832,N,11713.0588,W,0.01,252.99,290415,,,A*7E
$GPRMC,041841.000,A,3252.3832,N,11713.0588,W,0.01,240.99,290415,,,A*74
$GPRMC,041841.200,A,3252.3832,N,11713.0588,W,0.01,124.39,290415,,,A*7D
$GPRMC,041841.400,A,3252.3832,N,11713.0588,W,0.01,43.86,290415,,,A*4F
$GPRMC,041841.600,A,3252.3832,N,11713.0588,W,0.00,120.44,290415,,,A*76
$GPRMC,041841.800,A,3252.3832,N,11713.0588,W,0.02,233.36,290415,,,A*7E
$GPRMC,041842.000,A,3252.3832,N,11713.0588,W,0.02,267.75,290415,,,A*73
$GPRMC,041842.200,A,3252.3832,N,11713.0588,W,0.02,246.13,290415,,,A*72
$GPRMC,041842.400,A,3252.3832,N,11713.0588,W,0.01,135.81,290415,,,A*7B
$GPRMC,041842.600,A,3252.3832,N,11713.0588,W,0.02,295.50,290415,,,A*7F
$GPRMC,041842.800,A,3252.3832,N,11713.0588,W,0.00,43.51,290415,,,A*4B
$GPRMC,041843.000,A,3252.3832,N,11713.0588,W,0.00,142.74,290415,,,A*75
$GPRMC,041843.200,A,3252.3832,N,11713.0588,W,0.01,23.62,290415,,,A*47
$GPRMC,041843.400,A,3252.3832,N,11713.0588,W,0.01,72.58,290415,,,A*4C
$GPRMC,041843.600,A,3252.3832,N,11713.0588,W,0.01,290.89,290415,,,A*7C
$GPRMC,041843.800,A,3252.3832,N,11713.0588,W,0.01,35.10,290415,,,A*4F
$GPRMC,041844.000,A,3252.3832,N,11713.0588,W,0.01,314.56,290415,,,A*72
$GPRMC,041844.200,A,3252.3832,N,11713.0588,W,0.01,56.12,290415,,,A*45
$GPRMC,041844.400,A,3252.3832,N,11713.0588,W,0.02,44.69,290415,,,A*4F
$GPRMC,041844.600,A,3252.3832,N,11713.0588,W,0.02,266.90,290415,,,A*79
$GPRMC,041844.800,A,3252.3832,N,11713.0588,W,0.01,112.63,290415,,,A*78
$GPRMC,041845.000,A,3252.3832,N,11713.0588,W,0.02,41.62,290415,,,A*44
$GPRMC,041845.200,A,3252.3832,N,11713.0588,W,0.01,238.21,290415,,,A*7E
$GPRMC,041845.400,A,3252.3832,N,11713.0588,W,0.00,320.12,290415,,,A*71
$GPRMC,041845.600,A,3252.3832,N,11713.0588,W,0.01,227.17,290415,,,A*71
$GPRMC,041845.800,A,3252.3832,N,11713.0588,W,0.01,222.92,290415,,,A*77
$GPRMC,041846.000,A,3252.3832,N,11713.0588,W,0.02,20.33,290415,,,A*44
$GPRMC,041846.200,A,3252.3832,N,11713.0588,W,0.00,40.80,290415,,,A*4A
$GPRMC,041846.400,A,3252.3832,N,11713.0588,W,0.02,132.99,290415,,,A*72
$GPRMC,041846.600,A,3252.3832,N,11713.0588,W,0.01,307.23,290415,,,A*76
$GPRMC,041846.800,A,3252.3832,N,11713.0588,W,0.02,181.09,290415,,,A*7F
$GPRMC,041847.000,A,3252.3832,N,11713.0588,W,0.01,298.16,290415,,,A*70
$GPRMC,041847.200,A,3252.3832,N,11713.0588,W,0.01,259.65,290415,,,A*7B
$GPRMC,041847.400,A,3252.3832,N,11713.0588,W,0.03,283.88,290415,,,A*7B
$GPRMC,041847.600,A,3252.3832,N,11713.0588,W,0.01,232.47,290415,,,A*72
$GPRMC,041847.800,A,3252.3832,N,11713.0588,W,0.01,249.45,290415,,,A*72
$GPRMC,041848.000,A,3252.3832,N,11713.0588,W,0.02,127.95,290415,,,A*70
$GPRMC,041848.200,A,3252.3832,N,11713.0588,W,0.02,247.40,290415,,,A*7F
$GPRMC,041848.400,A,3252.3832,N,11713.0588,W,0.02,235.82,290415,,,A*72
$GPRMC,041848.600,A,3252.3832,N,11713.0588,W,0.00,246.81,290415,,,A*75
$GPRMC,041848.800,A,3252.3832,N,11713.0588,W,0.01,279.04,290415,,,A*7B
$GPRMC,041849.000,A,3252.3832,N,11713.0588,W,0.02,251.99,290415,,,A*7F
$GPRMC,041849.200,A,3252.3832,N,11713.0588,W,0.01,116.62,290415,,,A*7A
$GPRMC,041849.400,A,3252.3832,N,11713.0588,W,0.01,341.16,290415,,,A*7F
$GPRMC,041849.600,A,3252.3832,N,11713.0588,W,0.01,227.13,290415,,,A*79
$GPRMC,041849.800,A,3252.3832,N,11713.0588,W,0.02,255.37,290415,,,A*77
$GPRMC,041850.000,A,3252.3832,N,11713.0588,W,0.01,189.68,290415,,,A*7C
$GPRMC,041850.200,A,3252.3832,N,11713.0588,W,0.01,342.14,290415,,,A*70
$GPRMC,041850.400,A,3252.3832,N,11713.0588,W,0.01,215.29,290415,,,A*7B
$GPRMC,041850.600,A,3252.3832,N,11713.0588,W,0.01,271.30,290415,,,A*73
$GPRMC,041850.800,A,3252.3832,N,11713.0588,W,0.01,121.40,290415,,,A*7C
$GPRMC,041851.000,A,3252.3832,N,11713.0588,W,0.01,232.35,290415,,,A*76
$GPRMC,041851.200,A,3252.3832,N,11713.0588,W,0.01,321.95,290415,,,A*7D
$GPRMC,041851.400,A,3252.3832,N,11713.0588,W,0.01,242.42,290415,,,A*75
$GPRMC,041851.600,A,3252.3832,N,11713.0588,W,0.02,265.00,290415,,,A*77
$GPRMC,041851.800,A,3252.3832,N,11713.0588,W,0.00,190.01,290415,,,A*73
$GPRMC,041852.000,A,3252.3832,N,11713.0588,W,0.01,1.83,290415,,,A*7A
$GPRMC,041852.200,A,3252.3832,N,11713.0588,W,0.01,308.11,290415,,,A*79
$GPRMC,041852.400,A,3252.3832,N,11713.0588,W,0.01,235.72,290415,,,A*75
$GPRMC,041852.600,A,3252.3832,N,11713.0588,W,0.00,124.30,290415,,,A*73
$GPRMC,041852.800,A,3252.3832,N,11713.0588,W,0.02,227.77,290415,,,A*7C
$GPRMC,041853.000,A,3252.3832,N,11713.0588,W,0.00,93.34,290415,,,A*4D
$GPRMC,041853.200,A,3252.3832,N,11713.0588,W,0.01,273.81,290415,,,A*7C
$GPRMC,041853.400,A,3252.3832,N,11713.0588,W,0.01,254.42,290415,,,A*70
$GPRMC,041853.600,A,3252.3832,N,11713.0588,W,0.01,179.23,290415,,,A*79
$GPRMC,041853.800,A,3252.3832,N,11713.0588,W,0.04,257.24,290415,,,A*7A
$GPRMC,041854.000,A,3252.3832,N,11713.0588,W,0.00,240.15,290415,,,A*75
$GPRMC,041854.200,A,3252.3832,N,11713.0588,W,0.01,242.34,290415,,,A*77
$GPRMC,041854.400,A,3252.3832,N,11713.0588,W,0.02,243.37,290415,,,A*70
$GPRMC,041854.600,A,3252.3832,N,11713.0588,W,0.01,15.04,290415,,,A*40
$GPRMC,041854.800,A,3252.3832,N,11713.0588,W,0.01,43.91,290415,,,A*41
$GPRMC,041855.000,A,3252.3832,N,11713.0588,W,0.00,299.91,290415,,,A*7C
$GPRMC,041855.200,A,3252.3832,N,11713.0588,W,0.01,231.46,290415,,,A*77
$GPRMC,041855.400,A,3252.3832,N,11713.0588,W,0.01,265.59,290415,,,A*7E
$GPRMC,041855.600,A,3252.3832,N,11713.0588,W,0.01,211.17,290415,,,A*75
$GPRMC,041855.800,A,3252.3832,N,11713.0588,W,0.01,268.95,290415,,,A*7F
$GPRMC,041856.000,A,3252.3832,N,11713.0589,W,0.01,319.18,290415,,,A*77
$GPRMC,041856.200,A,3252.3832,N,11713.0589,W,0.01,181.66,290415,,,A*7F
$GPRMC,041856.400,A,3252.3832,N,11713.0589,W,0.01,174.24,290415,,,A*75
$GPRMC,041856.600,A,3252.3832,N,11713.0589,W,0.01,316.11,290415,,,A*77
$GPRMC,041856.800,A,3252.3832,N,11713.0589,W,0.01,257.16,290415,,,A*7A
$GPRMC,041857.000,A,3252.3832,N,11713.0589,W,0.00,12.43,290415,,,A*41
$GPRMC,041857.200,A,3252.3832,N,11713.0589,W,0.00,260.82,290415,,,A*79
$GPRMC,041857.400,A,3252.3832,N,11713.0589,W,0.02,239.12,290415,,,D*7D
$GPRMC,041857.600,A,3252.3832,N,11713.0589,W,0.01,295.59,290415,,,D*75
$GPRMC,041857.800,A,3252.3831,N,11713.0589,W,0.00,317.55,290415,,,D*7E
$GPRMC,041858.000,A,3252.3831,N,11713.0590,W,0.01,254.71,290415,,,D*70
$GPRMC,041858.200,A,3252.3831,N,11713.0590,W,0.00,217.95,290415,,,D*7E
$GPRMC,041858.400,A,3252.3830,N,11713.0590,W,0.00,69.03,290415,,,D*4D
$GPRMC,041858.600,A,3252.3830,N,11713.0590,W,0.03,100.05,290415,,,D*74
$GPRMC,041858.800,A,3252.3830,N,11713.0590,W,0.04,78.37,290415,,,D*42
$GPRMC,041859.000,A,3252.3830,N,11713.0590,W,0.03,73.68,290415,,,D*4D
$GPRMC,041859.200,A,3252.3829,N,11713.0591,W,0.03,82.09,290415,,,D*4F
$GPRMC,041859.400,A,3252.3829,N,11713.0591,W,0.05,86.15,290415,,,D*46
$GPRMC,041859.600,A,3252.3829,N,11713.0591,W,0.06,96.10,290415,,,D*43
$GPRMC,041859.800,A,3252.3829,N,11713.0591,W,0.06,93.15,290415,,,D*4D
$GPRMC,041900.000,A,3252.3828,N,11713.0591,W,0.06,101.30,290415,,,D*74
$GPRMC,041900.200,A,3252.3828,N,11713.0591,W,0.07,91.24,290415,,,D*4A
$GPRMC,041900.400,A,3252.3828,N,11713.0591,W,0.03,79.04,290415,,,D*4C
$GPRMC,041900.600,A,3252.3828,N,11713.0591,W,0.03,65.72,290415,,,D*42
$GPRMC,041900.800,A,3252.3827,N,11713.0592,W,0.01,100.47,290415,,,D*76
$GPRMC,041901.000,A,3252.3827,N,11713.0592,W,0.01,124.07,290415,,,D*7D
$GPRMC,041901.200,A,3252.3827,N,11713.0592,W,0.01,330.20,290415,,,D*7D
$GPRMC,041901.400,A,3252.3827,N,11713.0592,W,0.01,215.90,290415,,,D*76
$GPRMC,041901.600,A,3252.3827,N,11713.0593,W,0.01,221.03,290415,,,D*78
$GPRMC,041901.800,A,3252.3826,N,11713.0593,W,0.01,246.43,290415,,,D*72
$GPRMC,041902.000,A,3252.3826,N,11713.0593,W,0.01,240.77,290415,,,D*78
$GPRMC,041902.200,A,3252.3826,N,11713.0594,W,0.00,127.51,290415,,,D*7A
$GPRMC,041902.400,A,3252.3826,N,11713.0594,W,0.01,141.50,290415,,,D*7C
$GPRMC,041902.600,A,3252.3826,N,11713.0594,W,0.01,267.64,290415,,,D*7E
$GPRMC,041902.800,A,3252.3826,N,11713.0594,W,0.01,82.78,290415,,,D*44
$GPRMC,041903.000,A,3252.3825,N,11713.0595,W,0.00,0.00,290415,,,D*7B
$GPRMC,041903.200,A,3252.3825,N,11713.0595,W,0.00,185.29,290415,,,D*7E
$GPRMC,041903.400,A,3252.3825,N,11713.0595,W,0.01,251.48,290415,,,D*74
$GPRMC,041903.600,A,3252.3825,N,11713.0595,W,0.02,245.17,290415,,,D*7A
$GPRMC,041903.800,A,3252.3825,N,11713.0596,W,0.02,226.80,290415,,,D*7C
$GPRMC,041904.000,A,3252.3825,N,11713.0596,W,0.02,259.89,290415,,,D*72
$GPRMC,041904.200,A,3252.3825,N,11713.0596,W,0.01,210.51,290415,,,D*7B
$GPRMC,041904.400,A,3252.3825,N,11713.0596,W,0.02,257.73,290415,,,D*7D
$GPRMC,041904.600,A,3252.3824,N,11713.0596,W,0.03,261.00,290415,,,D*7E
$GPRMC,041904.800,A,3252.3824,N,11713.0597,W,0.05,252.89,290415,,,D*76
$GPRMC,041905.000,A,3252.3824,N,11713.0597,W,0.05,246.69,290415,,,D*74
$GPRMC,041905.200,A,3252.3824,N,11713.0597,W,0.05,258.35,290415,,,D*70
$GPRMC,041905.400,A,3252.3824,N,11713.0597,W,0.08,261.01,290415,,,D*76
$GPRMC,041905.600,A,3252.3824,N,11713.0597,W,0.07,261.04,290415,,,D*7E
$GPRMC,041905.800,A,3252.3824,N,11713.0598,W,0.08,263.99,290415,,,D*76
$GPRMC,041906.000,A,3252.3824,N,11713.0598,W,0.07,268.50,290415,,,D*7C
$GPRMC,041906.200,A,3252.3824,N,11713.0598,W,0.07,265.13,290415,,,D*74
$GPRMC,041906.400,A,3252.3824,N,11713.0598,W,0.06,256.95,290415,,,D*7D
$GPRMC,041906.600,A,3252.3824,N,11713.0598,W,0.03,236.37,290415,,,D*74
$GPRMC,041906.800,A,3252.3824,N,11713.0598,W,0.01,250.36,290415,,,D*79
$GPRMC,041907.000,A,3252.3824,N,11713.0598,W,0.02,241.16,290415,,,D*71
$GPRMC,041907.200,A,3252.3824,N,11713.0598,W,0.01,231.02,290415,,,D*72
$GPRMC,041907.400,A,3252.3824,N,11713.0599,W,0.01,235.76,290415,,,D*72
$GPRMC,041907.600,A,3252.3824,N,11713.0599,W,0.00,296.99,290415,,,D*79
$GPRMC,041907.800,A,3252.3824,N,11713.0599,W,0.01,161.95,290415,,,D*71
$GPRMC,041908.000,A,3252.3824,N,11713.0599,W,0.01,193.53,290415,,,D*71
$GPRMC,041908.200,A,3252.3824,N,11713.0599,W,0.01,221.50,290415,,,D*7A
$GPRMC,041908.400,A,3252.3824,N,11713.0599,W,0.01,216.08,290415,,,D*75
$GPRMC,041908.600,A,3252.3824,N,11713.0599,W,0.01,302.67,290415,,,D*7A
$GPRMC,041908.800,A,3252.3824,N,11713.0599,W,0.01,255.52,290415,,,D*71
$GPRMC,041909.000,A,3252.3824,N,11713.0599,W,0.00,5.54,290415,,,D*78
$GPRMC,041909.200,A,3252.3824,N,11713.0599,W,0.01,142.65,290415,,,D*7B
$GPRMC,041909.400,A,3252.3824,N,11713.0599,W,0.00,281.64,290415,,,D*71
$GPRMC,041909.600,A,3252.3824,N,11713.0599,W,0.01,34.66,290415,,,D*4C
$GPRMC,041909.800,A,3252.3824,N,11713.0599,W,0.00,180.51,290415,,,D*79
$GPRMC,041910.000,A,3252.3824,N,11713.0599,W,0.00,63.23,290415,,,D*40
$GPRMC,041910.200,A,3252.3824,N,11713.0599,W,0.00,236.26,290415,,,D*75
$GPRMC,041910.400,A,3252.3824,N,11713.0599,W,0.00,107.22,290415,,,D*76
$GPRMC,041910.600,A,3252.3824,N,11713.0598,W,0.01,73.22,290415,,,D*46
$GPRMC,041910.800,A,3252.3824,N,11713.0598,W,0.00,93.61,290415,,,D*40
$GPRMC,041911.000,A,3252.3825,N,11713.0598,W,0.01,79.64,290415,,,D*48
$GPRMC,041911.200,A,3252.3825,N,11713.0598,W,0.01,92.79,290415,,,D*43
$GPRMC,041911.400,A,3252.3825,N,11713.0598,W,0.01,122.71,290415,,,D*77
$GPRMC,041911.600,A,3252.3825,N,11713.0598,W,0.01,83.21,290415,,,D*4A
$GPRMC,041911.800,A,3252.3825,N,11713.0598,W,0.01,121.92,290415,,,D*75
$GPRMC,041912.000,A,3252.3825,N,11713.0598,W,0.01,87.60,290415,,,D*4E
$GPRMC,041912.200,A,3252.3825,N,11713.0598,W,0.01,109.80,290415,,,D*75
$GPRMC,041912.400,A,3252.3825,N,11713.0598,W,0.00,87.83,290415,,,D*46
$GPRMC,041912.600,A,3252.3825,N,11713.0598,W,0.01,231.50,290415,,,D*74
$GPRMC,041912.800,A,3252.3825,N,11713.0598,W,0.00,161.61,290415,,,D*7F
$GPRMC,041913.000,A,3252.3825,N,11713.0597,W,0.00,0.00,290415,,,D*78
$GPRMC,041913.200,A,3252.3825,N,11713.0597,W,0.00,211.46,290415,,,D*7A
$GPRMC,041913.400,A,3252.3825,N,11713.0597,W,0.00,211.38,290415,,,D*75
$GPRMC,041913.600,A,3252.3825,N,11713.0597,W,0.00,0.00,290415,,,D*7E
$GPRMC,041913.800,A,3252.3825,N,11713.0597,W,0.00,156.07,290415,,,D*75
$GPRMC,041914.000,A,3252.3825,N,11713.0597,W,0.00,204.93,290415,,,D*73
$GPRMC,041914.200,A,3252.3825,N,11713.0597,W,0.00,232.31,290415,,,D*7C
$GPRMC,041914.400,A,3252.3825,N,11713.0597,W,0.00,0.00,290415,,,D*7B
$GPRMC,041914.600,A,3252.3824,N,11713.0597,W,0.00,213.37,290415,,,D*7C
$GPRMC,041914.800,A,3252.3824,N,11713.0596,W,0.00,82.57,290415,,,D*4F
$GPRMC,041915.000,A,3252.3824,N,11713.0596,W,0.00,0.00,290415,,,D*7E
$GPRMC,041915.200,A,3252.3824,N,11713.0596,W,0.00,213.93,290415,,,D*76
$GPRMC,041915.400,A,3252.3824,N,11713.0596,W,0.00,191.10,290415,,,D*72
$GPRMC,041915.600,A,3252.3824,N,11713.0596,W,0.00,208.07,290415,,,D*75
$GPRMC,041915.800,A,3252.3824,N,11713.0596,W,0.00,0.00,290415,,,D*76
$GPRMC,041916.000,A,3252.3824,N,11713.0596,W,0.00,235.94,290415,,,D*74
$GPRMC,041916.200,A,3252.3824,N,11713.0596,W,0.00,214.25,290415,,,D*7F
$GPRMC,041916.400,A,3252.3824,N,11713.0596,W,0.00,263.85,290415,,,D*73
$GPRMC,041916.600,A,3252.3824,N,11713.0596,W,0.00,264.50,290415,,,D*7E
$GPRMC,041916.800,A,3252.3824,N,11713.0596,W,0.00,270.68,290415,,,D*7E
$GPRMC,041917.000,A,3252.3824,N,11713.0596,W,0.00,252.96,290415,,,D*76
$GPRMC,041917.200,A,3252.3824,N,11713.0596,W,0.00,250.05,290415,,,D*7C
$GPRMC,041917.400,A,3252.3824,N,11713.0596,W,0.01,288.52,290415,,,D*7C
$GPRMC,041917.600,A,3252.3824,N,11713.0596,W,0.01,296.00,290415,,,D*76
$GPRMC,041917.800,A,3252.3824,N,11713.0596,W,0.01,281.62,290415,,,D*7A
$GPRMC,041918.000,A,3252.3824,N,11713.0596,W,0.01,286.16,290415,,,D*79
$GPRMC,041918.200,A,3252.3824,N,11713.0596,W,0.01,270.87,290415,,,D*7A
$GPRMC,041918.400,A,3252.3824,N,11713.0596,W,0.00,219.80,290415,,,D*75
$GPRMC,041918.600,A,3252.3824,N,11713.0596,W,0.00,97.95,290415,,,D*47
$GPRMC,041918.800,A,3252.3824,N,11713.0596,W,0.00,4.86,290415,,,D*71
$GPRMC,041919.000,A,3252.3824,N,11713.0596,W,0.00,0.00,290415,,,D*72
$GPRMC,041919.200,A,3252.3823,N,11713.0596,W,0.00,6.28,290415,,,D*7B
$GPRMC,041919.400,A,3252.3823,N,11713.0596,W,0.00,76.23,290415,,,D*41
$GPRMC,041919.600,A,3252.3823,N,11713.0596,W,0.00,285.46,290415,,,D*7E
$GPRMC,041919.800,A,3252.3823,N,11713.0596,W,0.00,0.00,290415,,,D*7D
$GPRMC,041920.000,A,3252.3823,N,11713.0596,W,0.00,60.43,290415,,,D*4E
$GPRMC,041920.200,A,3252.3823,N,11713.0596,W,0.00,79.79,290415,,,D*4D
$GPRMC,041920.400,A,3252.3823,N,11713.0596,W,0.00,191.64,290415,,,D*70
$GPRMC,041920.600,A,3252.3823,N,11713.0596,W,0.00,80.93,290415,,,D*4B
$GPRMC,041920.800,A,3252.3823,N,11713.0596,W,0.00,227.72,290415,,,D*75
$GPRMC,041921.000,A,3252.3822,N,11713.0596,W,0.00,79.03,290415,,,D*42
$GPRMC,041921.200,A,3252.3822,N,11713.0596,W,0.00,76.87,290415,,,D*43
$GPRMC,041921.400,A,3252.3822,N,11713.0596,W,0.00,344.89,290415,,,D*79
$GPRMC,041921.600,A,3252.3822,N,11713.0596,W,0.00,131.39,290415,,,D*70
$GPRMC,041921.800,A,3252.3822,N,11713.0596,W,0.00,326.39,290415,,,D*7A
$GPRMC,041922.000,A,3252.3822,N,11713.0596,W,0.00,133.41,290415,,,D*78
$GPRMC,041922.200,A,3252.3822,N,11713.0596,W,0.00,0.00,290415,,,D*7E
$GPRMC,041922.400,A,3252.3822,N,11713.0597,W,0.00,247.96,290415,,,D*77
$GPRMC,041922.600,A,3252.3822,N,11713.0597,W,0.01,109.56,290415,,,D*71
$GPRMC,041922.800,A,3252.3821,N,11713.0597,W,0.00,340.70,290415,,,D*76
$GPRMC,041923.000,A,3252.3821,N,11713.0597,W,0.00,82.51,290415,,,D*41
$GPRMC,041923.200,A,3252.3821,N,11713.0597,W,0.01,95.54,290415,,,D*41
$GPRMC,041923.400,A,3252.3821,N,11713.0597,W,0.01,104.91,290415,,,D*77
$GPRMC,041923.600,A,3252.3821,N,11713.0597,W,0.01,113.28,290415,,,D*71
$GPRMC,041923.800,A,3252.3821,N,11713.0597,W,0.01,82.91,290415,,,D*44
$GPRMC,041924.000,A,3252.3821,N,11713.0597,W,0.01,99.40,290415,,,D*4D
$GPRMC,041924.200,A,3252.3821,N,11713.0598,W,0.00,133.15,290415,,,D*70
$GPRMC,041924.400,A,3252.3821,N,11713.0598,W,0.00,148.85,290415,,,D*73
$GPRMC,041924.600,A,3252.3821,N,11713.0598,W,0.00,0.00,290415,,,D*71
$GPRMC,041924.800,A,3252.3821,N,11713.0598,W,0.00,118.53,290415,,,D*71
$GPRMC,041925.000,A,3252.3821,N,11713.0598,W,0.00,287.33,290415,,,D*7B
$GPRMC,041925.200,A,3252.3821,N,11713.0599,W,0.00,206.08,290415,,,D*79
$GPRMC,041925.400,A,3252.3821,N,11713.0599,W,0.00,356.53,290415,,,D*75
$GPRMC,041925.600,A,3252.3821,N,11713.0599,W,0.00,233.71,290415,,,D*75
$GPRMC,041925.800,A,3252.3821,N,11713.0599,W,0.00,222.71,290415,,,D*7B
$GPRMC,041926.000,A,3252.3821,N,11713.0600,W,0.00,210.73,290415,,,D*70
$GPRMC,041926.200,A,3252.3821,N,11713.0600,W,0.00,0.00,290415,,,D*75
$GPRMC,041926.400,A,3252.3820,N,11713.0600,W,0.00,0.00,290415,,,D*72
$GPRMC,041926.600,A,3252.3820,N,11713.0600,W,0.00,101.38,290415,,,D*7B
$GPRMC,041926.800,A,3252.3820,N,11713.0600,W,0.00,247.41,290415,,,D*7A
$GPRMC,041927.000,A,3252.3820,N,11713.0601,W,0.00,161.58,290415,,,D*7D
$GPRMC,041927.200,A,3252.3821,N,11713.0601,W,0.00,329.11,290415,,,D*7D
$GPRMC,041927.400,A,3252.3821,N,11713.0601,W,0.00,239.22,290415,,,D*7B
$GPRMC,041927.600,A,3252.3821,N,11713.0601,W,0.00,0.00,290415,,,D*71
$GPRMC,041927.800,A,3252.3821,N,11713.0602,W,0.00,298.22,290415,,,D*7F
$GPRMC,041928.000,A,3252.3821,N,11713.0602,W,0.00,0.00,290415,,,D*7B
$GPRMC,041928.200,A,3252.3821,N,11713.0602,W,0.00,248.54,290415,,,D*76
$GPRMC,041928.400,A,3252.3821,N,11713.0602,W,0.00,220.06,290415,,,D*79
$GPRMC,041928.600,A,3252.3821,N,11713.0603,W,0.01,286.49,290415,,,D*7C
$GPRMC,041928.800,A,3252.3821,N,11713.0603,W,0.00,298.76,290415,,,D*70
$GPRMC,041929.000,A,3252.3821,N,11713.0603,W,0.00,277.97,290415,,,D*77
$GPRMC,041929.200,A,3252.3821,N,11713.0603,W,0.00,281.89,290415,,,D*73
$GPRMC,041929.400,A,3252.3821,N,11713.0603,W,0.01,285.05,290415,,,D*74
$GPRMC,041929.600,A,3252.3821,N,11713.0604,W,0.01,286.67,290415,,,D*76
$GPRMC,041929.800,A,3252.3821,N,11713.0604,W,0.01,288.97,290415,,,D*79
$GPRMC,041930.000,A,3252.3821,N,11713.0604,W,0.01,296.87,290415,,,D*77
$GPRMC,041930.200,A,3252.3821,N,11713.0604,W,0.01,294.69,290415,,,D*77
$GPRMC,041930.400,A,3252.3821,N,11713.0604,W,0.00,290.92,290415,,,D*70
$GPRMC,041930.600,A,3252.3821,N,11713.0604,W,0.00,63.89,290415,,,D*46
$GPRMC,041930.800,A,3252.3821,N,11713.0604,W,0.00,40.11,290415,,,D*48
$GPRMC,041931.000,A,3252.3822,N,11713.0605,W,0.00,351.40,290415,,,D*74
$GPRMC,041931.200,A,3252.3822,N,11713.0605,W,0.00,34.82,290415,,,D*48
$GPRMC,041931.400,A,3252.3822,N,11713.0605,W,0.00,4.90,290415,,,D*7E
$GPRMC,041931.600,A,3252.3822,N,11713.0605,W,0.00,0.00,290415,,,D*71
$GPRMC,041931.800,A,3252.3822,N,11713.0605,W,0.00,15.58,290415,,,D*46
$GPRMC,041932.000,A,3252.3822,N,11713.0605,W,0.00,116.15,290415,,,D*76
$GPRMC,041932.200,A,3252.3822,N,11713.0605,W,0.00,30.32,290415,,,D*44
$GPRMC,041932.400,A,3252.3822,N,11713.0605,W,0.00,0.00,290415,,,D*70
$GPRMC,041932.600,A,3252.3823,N,11713.0605,W,0.00,8.68,290415,,,D*75
$GPRMC,041932.800,A,3252.3823,N,11713.0606,W,0.00,24.52,290415,,,D*4F
$GPRMC,041933.000,A,3252.3823,N,11713.0606,W,0.00,0.00,290415,,,D*77
$GPRMC,041933.200,A,3252.3823,N,11713.0606,W,0.00,12.29,290415,,,D*4D
$GPRMC,041933.400,A,3252.3823,N,11713.0606,W,0.00,0.00,290415,,,D*73
$GPRMC,041933.600,A,3252.3824,N,11713.0606,W,0.00,0.00,290415,,,D*76
$GPRMC,041933.800,A,3252.3824,N,11713.0606,W,0.00,305.26,290415,,,D*7A
$GPRMC,041934.000,A,3252.3824,N,11713.0606,W,0.00,60.21,290415,,,D*42
$GPRMC,041934.200,A,3252.3824,N,11713.0606,W,0.00,1.85,290415,,,D*79
$GPRMC,041934.400,A,3252.3824,N,11713.0606,W,0.01,109.63,290415,,,D*7F
$GPRMC,041934.600,A,3252.3825,N,11713.0606,W,0.00,46.95,290415,,,D*4E
$GPRMC,041934.800,A,3252.3825,N,11713.0607,W,0.00,97.85,290415,,,D*4C
$GPRMC,041935.000,A,3252.3825,N,11713.0607,W,0.00,65.10,290415,,,D*44
$GPRMC,041935.200,A,3252.3825,N,11713.0607,W,0.01,77.02,290415,,,D*47
$GPRMC,041935.400,A,3252.3825,N,11713.0607,W,0.00,93.00,290415,,,D*48
$GPRMC,041935.600,A,3252.3825,N,11713.0607,W,0.01,125.87,290415,,,D*78
$GPRMC,041935.800,A,3252.3826,N,11713.0607,W,0.01,94.31,290415,,,D*43
$GPRMC,041936.000,A,3252.3826,N,11713.0607,W,0.01,105.32,290415,,,D*72
$GPRMC,041936.200,A,3252.3826,N,11713.0607,W,0.01,120.77,290415,,,D*76
$GPRMC,041936.400,A,3252.3826,N,11713.0607,W,0.00,107.70,290415,,,D*73
$GPRMC,041936.600,A,3252.3826,N,11713.0607,W,0.00,148.30,290415,,,D*7E
$GPRMC,041936.800,A,3252.3826,N,11713.0607,W,0.00,308.38,290415,,,D*7E
$GPRMC,041937.000,A,3252.3826,N,11713.0607,W,0.00,245.46,290415,,,D*76
$GPRMC,041937.200,A,3252.3826,N,11713.0607,W,0.00,234.43,290415,,,D*77
$GPRMC,041937.400,A,3252.3827,N,11713.0607,W,0.00,138.45,290415,,,D*79
$GPRMC,041937.600,A,3252.3827,N,11713.0607,W,0.00,294.97,290415,,,D*71
$GPRMC,041937.800,A,3252.3827,N,11713.0607,W,0.00,164.42,290415,,,D*7B
$GPRMC,041938.000,A,3252.3827,N,11713.0607,W,0.00,0.00,290415,,,D*79
$GPRMC,041938.200,A,3252.3827,N,11713.0607,W,0.00,206.87,290415,,,D*70
$GPRMC,041938.400,A,3252.3827,N,11713.0607,W,0.00,134.15,290415,,,D*7F
$GPRMC,041938.600,A,3252.3827,N,11713.0607,W,0.00,240.59,290415,,,D*75
$GPRMC,041938.800,A,3252.3827,N,11713.0607,W,0.00,311.88,290415,,,D*72
$GPRMC,041939.000,A,3252.3827,N,11713.0607,W,0.00,73.78,290415,,,D*43
$GPRMC,041939.200,A,3252.3827,N,11713.0607,W,0.00,233.88,290415,,,D*78
$GPRMC,041939.400,A,3252.3828,N,11713.0607,W,0.00,39.94,290415,,,D*44
$GPRMC,041939.600,A,3252.3828,N,11713.0607,W,0.00,242.57,290415,,,D*77
$GPRMC,041939.800,A,3252.3828,N,11713.0607,W,0.00,203.38,290415,,,D*75
$GPRMC,041940.000,A,3252.3828,N,11713.0607,W,0.00,0.00,290415,,,D*79
$GPRMC,041940.200,A,3252.3828,N,11713.0607,W,0.00,87.65,290415,,,D*47
$GPRMC,041940.400,A,3252.3828,N,11713.0607,W,0.00,253.52,290415,,,D*7E
$GPRMC,041940.600,A,3252.3828,N,11713.0607,W,0.00,260.99,290415,,,D*7B
$GPRMC,041940.800,A,3252.3828,N,11713.0607,W,0.00,325.13,290415,,,D*77
$GPRMC,041941.000,A,3252.3828,N,11713.0607,W,0.00,275.53,290415,,,D*7E
$GPRMC,041941.200,A,3252.3828,N,11713.0607,W,0.01,270.29,290415,,,D*75
$GPRMC,041941.400,A,3252.3828,N,11713.0607,W,0.00,322.08,290415,,,D*77
$GPRMC,041941.600,A,3252.3828,N,11713.0607,W,0.01,287.74,290415,,,D*71
$GPRMC,041941.800,A,3252.3828,N,11713.0607,W,0.01,327.14,290415,,,D*72
$GPRMC,041942.000,A,3252.3828,N,11713.0607,W,0.01,280.78,290415,,,D*7F
$GPRMC,041942.200,A,3252.3828,N,11713.0607,W,0.00,312.90,290415,,,D*70
$GPRMC,041942.400,A,3252.3828,N,11713.0607,W,0.00,345.00,290415,,,D*7D
$GPRMC,041942.600,A,3252.3828,N,11713.0607,W,0.00,10.41,290415,,,D*49
$GPRMC,041942.800,A,3252.3828,N,11713.0607,W,0.00,93.81,290415,,,D*40
$GPRMC,041943.000,A,3252.3828,N,11713.0607,W,0.00,7.18,290415,,,D*74
$GPRMC,041943.200,A,3252.3828,N,11713.0607,W,0.00,58.03,290415,,,D*46
$GPRMC,041943.400,A,3252.3828,N,11713.0607,W,0.00,53.74,290415,,,D*4B
$GPRMC,041943.600,A,3252.3828,N,11713.0607,W,0.00,322.17,290415,,,D*79
$GPRMC,041943.800,A,3252.3828,N,11713.0607,W,0.00,86.48,290415,,,D*40
$GPRMC,041944.000,A,3252.3828,N,11713.0607,W,0.00,16.95,290415,,,D*46
$GPRMC,041944.200,A,3252.3828,N,11713.0607,W,0.00,26.83,290415,,,D*40
$GPRMC,041944.400,A,3252.3828,N,11713.0607,W,0.00,68.69,290415,,,D*48
$GPRMC,041944.600,A,3252.3828,N,11713.0607,W,0.00,21.49,290415,,,D*45
$GPRMC,041944.800,A,3252.3828,N,11713.0607,W,0.00,85.99,290415,,,D*48
$GPRMC,041945.000,A,3252.3828,N,11713.0607,W,0.00,23.82,290415,,,D*47
$GPRMC,041945.200,A,3252.3828,N,11713.0607,W,0.00,25.45,290415,,,D*48
$GPRMC,041945.400,A,3252.3828,N,11713.0607,W,0.00,331.55,290415,,,D*79
$GPRMC,041945.600,A,3252.3828,N,11713.0607,W,0.00,42.70,290415,,,D*4B
$GPRMC,041945.800,A,3252.3828,N,11713.0607,W,0.00,29.58,290415,,,D*42
$GPRMC,041946.000,A,3252.3828,N,11713.0607,W,0.00,0.00,290415,,,D*7F
$GPRMC,041946.200,A,3252.3828,N,11713.0607,W,0.00,12.75,290415,,,D*4C
$GPRMC,041946.400,A,3252.3828,N,11713.0607,W,0.00,81.82,290415,,,D*48
$GPRMC,041946.600,A,3252.3828,N,11713.0607,W,0.00,74.58,290415,,,D*47
$GPRMC,041946.800,A,3252.3828,N,11713.0607,W,0.00,79.19,290415,,,D*41
$GPRMC,041947.000,A,3252.3828,N,11713.0607,W,0.00,58.14,290415,,,D*46
$GPRMC,041947.200,A,3252.3828,N,11713.0607,W,0.00,74.66,290415,,,D*4F
$GPRMC,041947.400,A,3252.3828,N,11713.0607,W,0.00,99.95,290415,,,D*46
$GPRMC,041947.600,A,3252.3828,N,11713.0607,W,0.01,117.28,290415,,,D*74
$GPRMC,041947.800,A,3252.3828,N,11713.0607,W,0.01,123.47,290415,,,D*74
$GPRMC,041948.000,A,3252.3828,N,11713.0607,W,0.01,118.93,290415,,,D*72
$GPRMC,041948.200,A,3252.3828,N,11713.0607,W,0.01,101.71,290415,,,D*74
$GPRMC,041948.400,A,3252.3828,N,11713.0607,W,0.00,227.21,290415,,,D*71
$GPRMC,041948.600,A,3252.3828,N,11713.0607,W,0.01,210.11,290415,,,D*75
$GPRMC,041948.800,A,3252.3828,N,11713.0607,W,0.00,223.62,290415,,,D*7E
$GPRMC,041949.000,A,3252.3828,N,11713.0607,W,0.00,216.11,290415,,,D*75
$GPRMC,041949.200,A,3252.3828,N,11713.0607,W,0.00,201.15,290415,,,D*75
$GPRMC,041949.400,A,3252.3828,N,11713.0607,W,0.00,220.58,290415,,,D*79
$GPRMC,041949.600,A,3252.3828,N,11713.0607,W,0.00,190.96,290415,,,D*71
$GPRMC,041949.800,A,3252.3828,N,11713.0607,W,0.00,208.27,290415,,,D*77
$GPRMC,041950.000,A,3252.3828,N,11713.0607,W,0.00,242.90,290415,,,D*75
$GPRMC,041950.200,A,3252.3828,N,11713.0607,W,0.01,215.80,290415,,,D*75
$GPRMC,041950.400,A,3252.3828,N,11713.0607,W,0.00,229.59,290415,,,D*79
$GPRMC,041950.600,A,3252.3828,N,11713.0607,W,0.00,191.21,290415,,,D*74
